{
	"type" : "FeatureCollection",
	"name" : "Yarra food establishments",
	"features" : [
		{
			"type" : "Feature",
			"geometry" : {
				"type" : "Point",
				"coordinates" : [ 144.993784, -37.799808 ]
			},
			"properties" : {
				"lat" : "-37.799808",
				"lon" : "144.993784",
				"name" : "77 Melbourne Bento",
				"street_address" : "268 Johnston St Abbotsford VIC 3067",
				"suburb" : "Abbotsford",
				"seats" : "",
				"industry_code" : "4511",
				"industry_desc" : "Cafes and Restaurants",
				"ref" : ""
			}
		},
		{
			"type" : "Feature",
			"geometry" : {
				"type" : "Point",
				"coordinates" : [ 144.9999844, -37.8084889 ]
			},
			"properties" : {
				"lat" : "-37.8084889",
				"lon" : "144.9999844",
				"name" : "8 Murray St",
				"street_address" : "8 Murray St Abbotsford VIC 3067",
				"suburb" : "Abbotsford",
				"seats" : "",
				"industry_code" : "4511",
				"industry_desc" : "Cafes and Restaurants",
				"ref" : ""
			}
		},
		{
			"type" : "Feature",
			"geometry" : {
				"type" : "Point",
				"coordinates" : [ 144.9926059, -37.8096896 ]
			},
			"properties" : {
				"lat" : "-37.8096896",
				"lon" : "144.9926059",
				"name" : "ALDI Stores",
				"street_address" : "313-321 Victoria St Abbotsford VIC 3067",
				"suburb" : "Abbotsford",
				"seats" : "",
				"industry_code" : "4110",
				"industry_desc" : "Supermarket and Grocery Stores",
				"ref" : ""
			}
		},
		{
			"type" : "Feature",
			"geometry" : {
				"type" : "Point",
				"coordinates" : [ 144.9973958, -37.8004034 ]
			},
			"properties" : {
				"lat" : "-37.8004034",
				"lon" : "144.9973958",
				"name" : "Admiral Cheng Ho",
				"street_address" : "325 Johnston St Abbotsford VIC 3067",
				"suburb" : "Abbotsford",
				"seats" : "",
				"industry_code" : "4511",
				"industry_desc" : "Cafes and Restaurants",
				"ref" : ""
			}
		},
		{
			"type" : "Feature",
			"geometry" : {
				"type" : "Point",
				"coordinates" : [ 144.992265, -37.809625 ]
			},
			"properties" : {
				"lat" : "-37.809625",
				"lon" : "144.992265",
				"name" : "Anothai",
				"street_address" : "247 Victoria St Abbotsford VIC 3067",
				"suburb" : "Abbotsford",
				"seats" : "",
				"industry_code" : "4110",
				"industry_desc" : "Supermarket and Grocery Stores",
				"ref" : ""
			}
		},
		{
			"type" : "Feature",
			"geometry" : {
				"type" : "Point",
				"coordinates" : [ 144.9935066, -37.8051086 ]
			},
			"properties" : {
				"lat" : "-37.8051086",
				"lon" : "144.9935066",
				"name" : "Ashvatha Ltd",
				"street_address" : "112/205 Gipps St Abbotsford VIC 3067",
				"suburb" : "Abbotsford",
				"seats" : "",
				"industry_code" : "4129",
				"industry_desc" : "Other Specialised Food Retailing",
				"ref" : ""
			}
		},
		{
			"type" : "Feature",
			"geometry" : {
				"type" : "Point",
				"coordinates" : [ 144.9960576, -37.8088212 ]
			},
			"properties" : {
				"lat" : "-37.8088212",
				"lon" : "144.9960576",
				"name" : "Au79",
				"street_address" : "27-29 Nicholson St Abbotsford VIC 3067",
				"suburb" : "Abbotsford",
				"seats" : "",
				"industry_code" : "4511",
				"industry_desc" : "Cafes and Restaurants",
				"ref" : ""
			}
		},
		{
			"type" : "Feature",
			"geometry" : {
				"type" : "Point",
				"coordinates" : [ 144.9932808, -37.8002296 ]
			},
			"properties" : {
				"lat" : "-37.8002296",
				"lon" : "144.9932808",
				"name" : "Aurora Pizza",
				"street_address" : "230 Hoddle St Abbotsford VIC 3067",
				"suburb" : "Abbotsford",
				"seats" : "",
				"industry_code" : "4512",
				"industry_desc" : "Takeaway Food Services",
				"ref" : ""
			}
		},
		{
			"type" : "Feature",
			"geometry" : {
				"type" : "Point",
				"coordinates" : [ 144.9981094, -37.7982058 ]
			},
			"properties" : {
				"lat" : "-37.7982058",
				"lon" : "144.9981094",
				"name" : "Australian Education Union",
				"street_address" : "126-142 Trenerry Cres Abbotsford VIC 3067",
				"suburb" : "Abbotsford",
				"seats" : "",
				"industry_code" : "4513",
				"industry_desc" : "Catering Services",
				"ref" : ""
			}
		},
		{
			"type" : "Feature",
			"geometry" : {
				"type" : "Point",
				"coordinates" : [ 144.9926059, -37.8096896 ]
			},
			"properties" : {
				"lat" : "-37.8096896",
				"lon" : "144.9926059",
				"name" : "Aviary Hotel",
				"street_address" : "271-273 Victoria St Abbotsford VIC 3067",
				"suburb" : "Abbotsford",
				"seats" : "",
				"industry_code" : "4511",
				"industry_desc" : "Cafes and Restaurants",
				"ref" : ""
			}
		},
		{
			"type" : "Feature",
			"geometry" : {
				"type" : "Point",
				"coordinates" : [ 144.9926059, -37.8096896 ]
			},
			"properties" : {
				"lat" : "-37.8096896",
				"lon" : "144.9926059",
				"name" : "BWS Abbotsford",
				"street_address" : "313-321 Victoria St Abbotsford VIC 3067",
				"suburb" : "Abbotsford",
				"seats" : "",
				"industry_code" : "4129",
				"industry_desc" : "Other Specialised Food Retailing",
				"ref" : ""
			}
		},
		{
			"type" : "Feature",
			"geometry" : {
				"type" : "Point",
				"coordinates" : [ 144.9926059, -37.8096896 ]
			},
			"properties" : {
				"lat" : "-37.8096896",
				"lon" : "144.9926059",
				"name" : "Baker's Arms Hotel",
				"street_address" : "355 Victoria St Abbotsford VIC 3067",
				"suburb" : "Abbotsford",
				"seats" : "",
				"industry_code" : "4511",
				"industry_desc" : "Cafes and Restaurants",
				"ref" : ""
			}
		},
		{
			"type" : "Feature",
			"geometry" : {
				"type" : "Point",
				"coordinates" : [ 144.9979609, -37.8040556 ]
			},
			"properties" : {
				"lat" : "-37.8040556",
				"lon" : "144.9979609",
				"name" : "Bibendum Wine Co",
				"street_address" : "3 Harper St Abbotsford VIC 3067",
				"suburb" : "Abbotsford",
				"seats" : "",
				"industry_code" : "3601",
				"industry_desc" : "General Line Grocery Wholesaling",
				"ref" : ""
			}
		},
		{
			"type" : "Feature",
			"geometry" : {
				"type" : "Point",
				"coordinates" : [ 144.992405, -37.805148 ]
			},
			"properties" : {
				"lat" : "-37.805148",
				"lon" : "144.992405",
				"name" : "Billy's Pizza Joint",
				"street_address" : "110 Hoddle St Abbotsford VIC 3067",
				"suburb" : "Abbotsford",
				"seats" : "",
				"industry_code" : "4512",
				"industry_desc" : "Takeaway Food Services",
				"ref" : ""
			}
		},
		{
			"type" : "Feature",
			"geometry" : {
				"type" : "Point",
				"coordinates" : [ 144.9926059, -37.8096896 ]
			},
			"properties" : {
				"lat" : "-37.8096896",
				"lon" : "144.9926059",
				"name" : "Bing's Buns Bao",
				"street_address" : "371 Victoria St Abbotsford VIC 3067",
				"suburb" : "Abbotsford",
				"seats" : "",
				"industry_code" : "4511",
				"industry_desc" : "Cafes and Restaurants",
				"ref" : ""
			}
		},
		{
			"type" : "Feature",
			"geometry" : {
				"type" : "Point",
				"coordinates" : [ 144.9939445, -37.7999341 ]
			},
			"properties" : {
				"lat" : "-37.7999341",
				"lon" : "144.9939445",
				"name" : "Bodriggy Brewpub",
				"street_address" : "243-245 Johnston St Abbotsford VIC 3067",
				"suburb" : "Abbotsford",
				"seats" : "",
				"industry_code" : "4511",
				"industry_desc" : "Cafes and Restaurants",
				"ref" : ""
			}
		},
		{
			"type" : "Feature",
			"geometry" : {
				"type" : "Point",
				"coordinates" : [ 144.993764, -37.80004 ]
			},
			"properties" : {
				"lat" : "-37.80004",
				"lon" : "144.993764",
				"name" : "Bomb Café",
				"street_address" : "229 Johnston St Abbotsford VIC 3067",
				"suburb" : "Abbotsford",
				"seats" : "",
				"industry_code" : "4511",
				"industry_desc" : "Cafes and Restaurants",
				"ref" : ""
			}
		},
		{
			"type" : "Feature",
			"geometry" : {
				"type" : "Point",
				"coordinates" : [ 144.9926059, -37.8096896 ]
			},
			"properties" : {
				"lat" : "-37.8096896",
				"lon" : "144.9926059",
				"name" : "Bonbons Bakery Abbotsford",
				"street_address" : "2/313 Victoria St Abbotsford VIC 3067",
				"suburb" : "Abbotsford",
				"seats" : "",
				"industry_code" : "1174",
				"industry_desc" : "Bakery Product Manufacturing (Non-factory based)",
				"ref" : ""
			}
		},
		{
			"type" : "Feature",
			"geometry" : {
				"type" : "Point",
				"coordinates" : [ 144.9998, -37.8046 ]
			},
			"properties" : {
				"lat" : "-37.8046",
				"lon" : "144.9998",
				"name" : "Breadtop Factory",
				"street_address" : "3/204-206 Gipps St Abbotsford VIC 3067",
				"suburb" : "Abbotsford",
				"seats" : "",
				"industry_code" : "1140",
				"industry_desc" : "Fruit and Vegetable Processing",
				"ref" : ""
			}
		},
		{
			"type" : "Feature",
			"geometry" : {
				"type" : "Point",
				"coordinates" : [ 144.99235, -37.8053205 ]
			},
			"properties" : {
				"lat" : "-37.8053205",
				"lon" : "144.99235",
				"name" : "Burgers a Gogo",
				"street_address" : "106 Hoddle St Abbotsford VIC 3067",
				"suburb" : "Abbotsford",
				"seats" : "",
				"industry_code" : "4511",
				"industry_desc" : "Cafes and Restaurants",
				"ref" : ""
			}
		},
		{
			"type" : "Feature",
			"geometry" : {
				"type" : "Point",
				"coordinates" : [ 145.0037161, -37.8030856 ]
			},
			"properties" : {
				"lat" : "-37.8030856",
				"lon" : "145.0037161",
				"name" : "Bursaria Fine Foods",
				"street_address" : "1 St Heliers St Abbotsford VIC 3067",
				"suburb" : "Abbotsford",
				"seats" : "",
				"industry_code" : "4513",
				"industry_desc" : "Catering Services",
				"ref" : ""
			}
		},
		{
			"type" : "Feature",
			"geometry" : {
				"type" : "Point",
				"coordinates" : [ 144.9939445, -37.7999341 ]
			},
			"properties" : {
				"lat" : "-37.7999341",
				"lon" : "144.9939445",
				"name" : "Cafe Vit",
				"street_address" : "413 Johnston St Abbotsford VIC 3067",
				"suburb" : "Abbotsford",
				"seats" : "",
				"industry_code" : "4511",
				"industry_desc" : "Cafes and Restaurants",
				"ref" : ""
			}
		},
		{
			"type" : "Feature",
			"geometry" : {
				"type" : "Point",
				"coordinates" : [ 144.9914891, -37.8093898 ]
			},
			"properties" : {
				"lat" : "-37.8093898",
				"lon" : "144.9914891",
				"name" : "Caltex Starmart Abbotsford",
				"street_address" : "28-40 Hoddle St Abbotsford VIC 3067",
				"suburb" : "Abbotsford",
				"seats" : "",
				"industry_code" : "4110",
				"industry_desc" : "Supermarket and Grocery Stores",
				"ref" : ""
			}
		},
		{
			"type" : "Feature",
			"geometry" : {
				"type" : "Point",
				"coordinates" : [ 145.0008213, -37.8096183 ]
			},
			"properties" : {
				"lat" : "-37.8096183",
				"lon" : "145.0008213",
				"name" : "Carlton & United Breweries",
				"street_address" : "36-80 Church St Abbotsford VIC 3067",
				"suburb" : "Abbotsford",
				"seats" : "",
				"industry_code" : "1140",
				"industry_desc" : "Fruit and Vegetable Processing",
				"ref" : ""
			}
		},
		{
			"type" : "Feature",
			"geometry" : {
				"type" : "Point",
				"coordinates" : [ 145.0055335, -37.8087894 ]
			},
			"properties" : {
				"lat" : "-37.8087894",
				"lon" : "145.0055335",
				"name" : "Carlton & United Breweries-Spotless (Brewery Only)",
				"street_address" : "4 Southampton Cres Abbotsford VIC 3067",
				"suburb" : "Abbotsford",
				"seats" : "",
				"industry_code" : "4511",
				"industry_desc" : "Cafes and Restaurants",
				"ref" : ""
			}
		},
		{
			"type" : "Feature",
			"geometry" : {
				"type" : "Point",
				"coordinates" : [ 145.0008213, -37.8096183 ]
			},
			"properties" : {
				"lat" : "-37.8096183",
				"lon" : "145.0008213",
				"name" : "Carlton Brewhouse",
				"street_address" : "36-80 Church St Abbotsford VIC 3067",
				"suburb" : "Abbotsford",
				"seats" : "",
				"industry_code" : "4511",
				"industry_desc" : "Cafes and Restaurants",
				"ref" : ""
			}
		},
		{
			"type" : "Feature",
			"geometry" : {
				"type" : "Point",
				"coordinates" : [ 144.9926059, -37.8096896 ]
			},
			"properties" : {
				"lat" : "-37.8096896",
				"lon" : "144.9926059",
				"name" : "Chimac the Korean bistro",
				"street_address" : "345 Victoria St Abbotsford VIC 3067",
				"suburb" : "Abbotsford",
				"seats" : "",
				"industry_code" : "4511",
				"industry_desc" : "Cafes and Restaurants",
				"ref" : ""
			}
		},
		{
			"type" : "Feature",
			"geometry" : {
				"type" : "Point",
				"coordinates" : [ 144.9981094, -37.7982058 ]
			},
			"properties" : {
				"lat" : "-37.7982058",
				"lon" : "144.9981094",
				"name" : "Chomp Café",
				"street_address" : "1 Trenerry Cres Abbotsford VIC 3067",
				"suburb" : "Abbotsford",
				"seats" : "",
				"industry_code" : "4511",
				"industry_desc" : "Cafes and Restaurants",
				"ref" : ""
			}
		},
		{
			"type" : "Feature",
			"geometry" : {
				"type" : "Point",
				"coordinates" : [ 144.992278, -37.80733 ]
			},
			"properties" : {
				"lat" : "-37.80733",
				"lon" : "144.992278",
				"name" : "City East Motel",
				"street_address" : "181 Langridge St Abbotsford VIC 3067",
				"suburb" : "Abbotsford",
				"seats" : "",
				"industry_code" : "4129",
				"industry_desc" : "Other Specialised Food Retailing",
				"ref" : ""
			}
		},
		{
			"type" : "Feature",
			"geometry" : {
				"type" : "Point",
				"coordinates" : [ 144.9926059, -37.8096896 ]
			},
			"properties" : {
				"lat" : "-37.8096896",
				"lon" : "144.9926059",
				"name" : "Cloud 9 Smoke Shop & Accessories",
				"street_address" : "441-443 Victoria St Abbotsford VIC 3067",
				"suburb" : "Abbotsford",
				"seats" : "",
				"industry_code" : "4129",
				"industry_desc" : "Other Specialised Food Retailing",
				"ref" : ""
			}
		},
		{
			"type" : "Feature",
			"geometry" : {
				"type" : "Point",
				"coordinates" : [ 144.9926059, -37.8096896 ]
			},
			"properties" : {
				"lat" : "-37.8096896",
				"lon" : "144.9926059",
				"name" : "Coffee Corner",
				"street_address" : "8/313 Victoria St Abbotsford VIC 3067",
				"suburb" : "Abbotsford",
				"seats" : "",
				"industry_code" : "4511",
				"industry_desc" : "Cafes and Restaurants",
				"ref" : ""
			}
		},
		{
			"type" : "Feature",
			"geometry" : {
				"type" : "Point",
				"coordinates" : [ 144.9930449, -37.8074604 ]
			},
			"properties" : {
				"lat" : "-37.8074604",
				"lon" : "144.9930449",
				"name" : "Coffee Peddlr",
				"street_address" : "203 Langridge St Abbotsford VIC 3067",
				"suburb" : "Abbotsford",
				"seats" : "",
				"industry_code" : "4511",
				"industry_desc" : "Cafes and Restaurants",
				"ref" : ""
			}
		},
		{
			"type" : "Feature",
			"geometry" : {
				"type" : "Point",
				"coordinates" : [ 145.0067071, -37.8086792 ]
			},
			"properties" : {
				"lat" : "-37.8086792",
				"lon" : "145.0067071",
				"name" : "Coffee Supreme Pty Ltd",
				"street_address" : "28 Grosvenor St Abbotsford VIC 3067",
				"suburb" : "Abbotsford",
				"seats" : "",
				"industry_code" : "4511",
				"industry_desc" : "Cafes and Restaurants",
				"ref" : ""
			}
		},
		{
			"type" : "Feature",
			"geometry" : {
				"type" : "Point",
				"coordinates" : [ 144.9937711, -37.7983218 ]
			},
			"properties" : {
				"lat" : "-37.7983218",
				"lon" : "144.9937711",
				"name" : "Coles Express Abbotsford",
				"street_address" : "266-278 Hoddle St Abbotsford VIC 3067",
				"suburb" : "Abbotsford",
				"seats" : "",
				"industry_code" : "4110",
				"industry_desc" : "Supermarket and Grocery Stores",
				"ref" : ""
			}
		},
		{
			"type" : "Feature",
			"geometry" : {
				"type" : "Point",
				"coordinates" : [ 145.0064295, -37.8033213 ]
			},
			"properties" : {
				"lat" : "-37.8033213",
				"lon" : "145.0064295",
				"name" : "Collingwood Children's Farm",
				"street_address" : "18 St Heliers St Abbotsford VIC 3067",
				"suburb" : "Abbotsford",
				"seats" : "",
				"industry_code" : "1140",
				"industry_desc" : "Fruit and Vegetable Processing",
				"ref" : ""
			}
		},
		{
			"type" : "Feature",
			"geometry" : {
				"type" : "Point",
				"coordinates" : [ 145.0064295, -37.8033213 ]
			},
			"properties" : {
				"lat" : "-37.8033213",
				"lon" : "145.0064295",
				"name" : "Collingwood Children's Farm Apiary",
				"street_address" : "18 St Heliers St Abbotsford VIC 3067",
				"suburb" : "Abbotsford",
				"seats" : "",
				"industry_code" : "4129",
				"industry_desc" : "Other Specialised Food Retailing",
				"ref" : ""
			}
		},
		{
			"type" : "Feature",
			"geometry" : {
				"type" : "Point",
				"coordinates" : [ 144.9998, -37.8046 ]
			},
			"properties" : {
				"lat" : "-37.8046",
				"lon" : "144.9998",
				"name" : "Computershare Cafe",
				"street_address" : "452-484 Johnston St Abbotsford VIC 3067",
				"suburb" : "Abbotsford",
				"seats" : "",
				"industry_code" : "4511",
				"industry_desc" : "Cafes and Restaurants",
				"ref" : ""
			}
		},
		{
			"type" : "Feature",
			"geometry" : {
				"type" : "Point",
				"coordinates" : [ 145.0037161, -37.8030856 ]
			},
			"properties" : {
				"lat" : "-37.8030856",
				"lon" : "145.0037161",
				"name" : "Convent Bakery",
				"street_address" : "1 St Heliers St Abbotsford VIC 3067",
				"suburb" : "Abbotsford",
				"seats" : "",
				"industry_code" : "1174",
				"industry_desc" : "Bakery Product Manufacturing (Non-factory based)",
				"ref" : ""
			}
		},
		{
			"type" : "Feature",
			"geometry" : {
				"type" : "Point",
				"coordinates" : [ 144.9931365, -37.8072913 ]
			},
			"properties" : {
				"lat" : "-37.8072913",
				"lon" : "144.9931365",
				"name" : "Damm Fine Food",
				"street_address" : "31-37 Russell St Abbotsford VIC 3067",
				"suburb" : "Abbotsford",
				"seats" : "",
				"industry_code" : "4513",
				"industry_desc" : "Catering Services",
				"ref" : ""
			}
		},
		{
			"type" : "Feature",
			"geometry" : {
				"type" : "Point",
				"coordinates" : [ 144.9926059, -37.8096896 ]
			},
			"properties" : {
				"lat" : "-37.8096896",
				"lon" : "144.9926059",
				"name" : "Dana Pani Indian Restaurant",
				"street_address" : "395-397 Victoria St Abbotsford VIC 3067",
				"suburb" : "Abbotsford",
				"seats" : "",
				"industry_code" : "4511",
				"industry_desc" : "Cafes and Restaurants",
				"ref" : ""
			}
		},
		{
			"type" : "Feature",
			"geometry" : {
				"type" : "Point",
				"coordinates" : [ 145.0049177, -37.8106403 ]
			},
			"properties" : {
				"lat" : "-37.8106403",
				"lon" : "145.0049177",
				"name" : "Delicious Traditional",
				"street_address" : "551 Victoria St Abbotsford VIC 3067",
				"suburb" : "Abbotsford",
				"seats" : "",
				"industry_code" : "4512",
				"industry_desc" : "Takeaway Food Services",
				"ref" : ""
			}
		},
		{
			"type" : "Feature",
			"geometry" : {
				"type" : "Point",
				"coordinates" : [ 145.0067071, -37.8086792 ]
			},
			"properties" : {
				"lat" : "-37.8086792",
				"lon" : "145.0067071",
				"name" : "Dench Bakers",
				"street_address" : "17 Grosvenor St Abbotsford VIC 3067",
				"suburb" : "Abbotsford",
				"seats" : "",
				"industry_code" : "1174",
				"industry_desc" : "Bakery Product Manufacturing (Non-factory based)",
				"ref" : ""
			}
		},
		{
			"type" : "Feature",
			"geometry" : {
				"type" : "Point",
				"coordinates" : [ 144.9939445, -37.7999341 ]
			},
			"properties" : {
				"lat" : "-37.7999341",
				"lon" : "144.9939445",
				"name" : "Dr Morse",
				"street_address" : "274 Johnston St Abbotsford VIC 3067",
				"suburb" : "Abbotsford",
				"seats" : "",
				"industry_code" : "4511",
				"industry_desc" : "Cafes and Restaurants",
				"ref" : ""
			}
		},
		{
			"type" : "Feature",
			"geometry" : {
				"type" : "Point",
				"coordinates" : [ 144.9968926, -37.8057117 ]
			},
			"properties" : {
				"lat" : "-37.8057117",
				"lon" : "144.9968926",
				"name" : "Ed Dixon Food Design",
				"street_address" : "102 Nicholson St Abbotsford VIC 3067",
				"suburb" : "Abbotsford",
				"seats" : "",
				"industry_code" : "4513",
				"industry_desc" : "Catering Services",
				"ref" : ""
			}
		},
		{
			"type" : "Feature",
			"geometry" : {
				"type" : "Point",
				"coordinates" : [ 144.9941336, -37.797041 ]
			},
			"properties" : {
				"lat" : "-37.797041",
				"lon" : "144.9941336",
				"name" : "Eighteen Thousand",
				"street_address" : "1 Abbot Gr Abbotsford VIC 3067",
				"suburb" : "Abbotsford",
				"seats" : "",
				"industry_code" : "3601",
				"industry_desc" : "General Line Grocery Wholesaling",
				"ref" : ""
			}
		},
		{
			"type" : "Feature",
			"geometry" : {
				"type" : "Point",
				"coordinates" : [ 144.9998, -37.8046 ]
			},
			"properties" : {
				"lat" : "-37.8046",
				"lon" : "144.9998",
				"name" : "Euro Garages Australia",
				"street_address" : "276-286 Johnston St Abbotsford VIC 3067",
				"suburb" : "Abbotsford",
				"seats" : "",
				"industry_code" : "4110",
				"industry_desc" : "Supermarket and Grocery Stores",
				"ref" : ""
			}
		},
		{
			"type" : "Feature",
			"geometry" : {
				"type" : "Point",
				"coordinates" : [ 145.0074977, -37.8086738 ]
			},
			"properties" : {
				"lat" : "-37.8086738",
				"lon" : "145.0074977",
				"name" : "Explorers Early Learning - Flockhart Street",
				"street_address" : "3 Flockhart St Abbotsford VIC 3067",
				"suburb" : "Abbotsford",
				"seats" : "",
				"industry_code" : "8710",
				"industry_desc" : "Child Care Services",
				"ref" : ""
			}
		},
		{
			"type" : "Feature",
			"geometry" : {
				"type" : "Point",
				"coordinates" : [ 145.0022218, -37.8106304 ]
			},
			"properties" : {
				"lat" : "-37.8106304",
				"lon" : "145.0022218",
				"name" : "FOF Rotary Hotpot",
				"street_address" : "481 Victoria St Abbotsford VIC 3067",
				"suburb" : "Abbotsford",
				"seats" : "",
				"industry_code" : "4511",
				"industry_desc" : "Cafes and Restaurants",
				"ref" : ""
			}
		},
		{
			"type" : "Feature",
			"geometry" : {
				"type" : "Point",
				"coordinates" : [ 145.004336, -37.8095022 ]
			},
			"properties" : {
				"lat" : "-37.8095022",
				"lon" : "145.004336",
				"name" : "FareShare",
				"street_address" : "1-7 South Audley St Abbotsford VIC 3067",
				"suburb" : "Abbotsford",
				"seats" : "",
				"industry_code" : "1174",
				"industry_desc" : "Bakery Product Manufacturing (Non-factory based)",
				"ref" : ""
			}
		},
		{
			"type" : "Feature",
			"geometry" : {
				"type" : "Point",
				"coordinates" : [ 144.9926059, -37.8096896 ]
			},
			"properties" : {
				"lat" : "-37.8096896",
				"lon" : "144.9926059",
				"name" : "First Choice Liquor Superstore",
				"street_address" : "601 Victoria St Abbotsford VIC 3067",
				"suburb" : "Abbotsford",
				"seats" : "",
				"industry_code" : "4129",
				"industry_desc" : "Other Specialised Food Retailing",
				"ref" : ""
			}
		},
		{
			"type" : "Feature",
			"geometry" : {
				"type" : "Point",
				"coordinates" : [ 144.9998, -37.8046 ]
			},
			"properties" : {
				"lat" : "-37.8046",
				"lon" : "144.9998",
				"name" : "Four Larks Cafe",
				"street_address" : "4/661-663 Victoria St Abbotsford VIC 3067",
				"suburb" : "Abbotsford",
				"seats" : "",
				"industry_code" : "4511",
				"industry_desc" : "Cafes and Restaurants",
				"ref" : ""
			}
		},
		{
			"type" : "Feature",
			"geometry" : {
				"type" : "Point",
				"coordinates" : [ 145.0136876, -37.8116332 ]
			},
			"properties" : {
				"lat" : "-37.8116332",
				"lon" : "145.0136876",
				"name" : "Frankie Says",
				"street_address" : "15 Acacia Pl Abbotsford VIC 3067",
				"suburb" : "Abbotsford",
				"seats" : "",
				"industry_code" : "4511",
				"industry_desc" : "Cafes and Restaurants",
				"ref" : ""
			}
		},
		{
			"type" : "Feature",
			"geometry" : {
				"type" : "Point",
				"coordinates" : [ 144.9941336, -37.797041 ]
			},
			"properties" : {
				"lat" : "-37.797041",
				"lon" : "144.9941336",
				"name" : "Friend + Burrell",
				"street_address" : "1 Abbot Gr Abbotsford VIC 3067",
				"suburb" : "Abbotsford",
				"seats" : "",
				"industry_code" : "3601",
				"industry_desc" : "General Line Grocery Wholesaling",
				"ref" : ""
			}
		},
		{
			"type" : "Feature",
			"geometry" : {
				"type" : "Point",
				"coordinates" : [ 144.9926059, -37.8096896 ]
			},
			"properties" : {
				"lat" : "-37.8096896",
				"lon" : "144.9926059",
				"name" : "Gongcha",
				"street_address" : "323-325 Victoria St Abbotsford VIC 3067",
				"suburb" : "Abbotsford",
				"seats" : "",
				"industry_code" : "4511",
				"industry_desc" : "Cafes and Restaurants",
				"ref" : ""
			}
		},
		{
			"type" : "Feature",
			"geometry" : {
				"type" : "Point",
				"coordinates" : [ 144.9926059, -37.8096896 ]
			},
			"properties" : {
				"lat" : "-37.8096896",
				"lon" : "144.9926059",
				"name" : "Green Square IGA Plus Liquor",
				"street_address" : "609-615 Victoria St Abbotsford VIC 3067",
				"suburb" : "Abbotsford",
				"seats" : "",
				"industry_code" : "4110",
				"industry_desc" : "Supermarket and Grocery Stores",
				"ref" : ""
			}
		},
		{
			"type" : "Feature",
			"geometry" : {
				"type" : "Point",
				"coordinates" : [ 144.9926059, -37.8096896 ]
			},
			"properties" : {
				"lat" : "-37.8096896",
				"lon" : "144.9926059",
				"name" : "H2A Wholesale and Retail",
				"street_address" : "363B Victoria St Abbotsford VIC 3067",
				"suburb" : "Abbotsford",
				"seats" : "",
				"industry_code" : "4129",
				"industry_desc" : "Other Specialised Food Retailing",
				"ref" : ""
			}
		},
		{
			"type" : "Feature",
			"geometry" : {
				"type" : "Point",
				"coordinates" : [ 144.9926059, -37.8096896 ]
			},
			"properties" : {
				"lat" : "-37.8096896",
				"lon" : "144.9926059",
				"name" : "Ha 2",
				"street_address" : "381 Victoria St Abbotsford VIC 3067",
				"suburb" : "Abbotsford",
				"seats" : "",
				"industry_code" : "4129",
				"industry_desc" : "Other Specialised Food Retailing",
				"ref" : ""
			}
		},
		{
			"type" : "Feature",
			"geometry" : {
				"type" : "Point",
				"coordinates" : [ 144.9931365, -37.8072913 ]
			},
			"properties" : {
				"lat" : "-37.8072913",
				"lon" : "144.9931365",
				"name" : "Harvest Box Pty Ltd",
				"street_address" : "17 Russell St Abbotsford VIC 3067",
				"suburb" : "Abbotsford",
				"seats" : "",
				"industry_code" : "4129",
				"industry_desc" : "Other Specialised Food Retailing",
				"ref" : ""
			}
		},
		{
			"type" : "Feature",
			"geometry" : {
				"type" : "Point",
				"coordinates" : [ 144.9941336, -37.797041 ]
			},
			"properties" : {
				"lat" : "-37.797041",
				"lon" : "144.9941336",
				"name" : "Henrietta Morgan",
				"street_address" : "1 Abbot Gr Abbotsford VIC 3067",
				"suburb" : "Abbotsford",
				"seats" : "",
				"industry_code" : "3601",
				"industry_desc" : "General Line Grocery Wholesaling",
				"ref" : ""
			}
		},
		{
			"type" : "Feature",
			"geometry" : {
				"type" : "Point",
				"coordinates" : [ 145.0059225, -37.8092358 ]
			},
			"properties" : {
				"lat" : "-37.8092358",
				"lon" : "145.0059225",
				"name" : "Hudsons Famous",
				"street_address" : "36 Duke St Abbotsford VIC 3067",
				"suburb" : "Abbotsford",
				"seats" : "",
				"industry_code" : "4513",
				"industry_desc" : "Catering Services",
				"ref" : ""
			}
		},
		{
			"type" : "Feature",
			"geometry" : {
				"type" : "Point",
				"coordinates" : [ 144.9957652, -37.7999747 ]
			},
			"properties" : {
				"lat" : "-37.7999747",
				"lon" : "144.9957652",
				"name" : "IGA Abbotsford",
				"street_address" : "306-310 Johnston St Abbotsford VIC 3067",
				"suburb" : "Abbotsford",
				"seats" : "",
				"industry_code" : "4110",
				"industry_desc" : "Supermarket and Grocery Stores",
				"ref" : ""
			}
		},
		{
			"type" : "Feature",
			"geometry" : {
				"type" : "Point",
				"coordinates" : [ 144.9914891, -37.8093898 ]
			},
			"properties" : {
				"lat" : "-37.8093898",
				"lon" : "144.9914891",
				"name" : "Jasper Coffee",
				"street_address" : "3/264 Hoddle St Abbotsford VIC 3067",
				"suburb" : "Abbotsford",
				"seats" : "",
				"industry_code" : "1140",
				"industry_desc" : "Fruit and Vegetable Processing",
				"ref" : ""
			}
		},
		{
			"type" : "Feature",
			"geometry" : {
				"type" : "Point",
				"coordinates" : [ 144.9923949, -37.8093417 ]
			},
			"properties" : {
				"lat" : "-37.8093417",
				"lon" : "144.9923949",
				"name" : "Jinda Thai Restaurant",
				"street_address" : "1-5 Ferguson St Abbotsford VIC 3067",
				"suburb" : "Abbotsford",
				"seats" : "",
				"industry_code" : "4511",
				"industry_desc" : "Cafes and Restaurants",
				"ref" : ""
			}
		},
		{
			"type" : "Feature",
			"geometry" : {
				"type" : "Point",
				"coordinates" : [ 145.0037161, -37.8030856 ]
			},
			"properties" : {
				"lat" : "-37.8030856",
				"lon" : "145.0037161",
				"name" : "Kappaya Japanese Soul Food Cafe",
				"street_address" : "1 St Heliers St Abbotsford VIC 3067",
				"suburb" : "Abbotsford",
				"seats" : "",
				"industry_code" : "4511",
				"industry_desc" : "Cafes and Restaurants",
				"ref" : ""
			}
		},
		{
			"type" : "Feature",
			"geometry" : {
				"type" : "Point",
				"coordinates" : [ 144.995529, -37.8002357 ]
			},
			"properties" : {
				"lat" : "-37.8002357",
				"lon" : "144.995529",
				"name" : "Kelso's Sandwich Shoppe",
				"street_address" : "271 Johnston St Abbotsford VIC 3067",
				"suburb" : "Abbotsford",
				"seats" : "",
				"industry_code" : "4511",
				"industry_desc" : "Cafes and Restaurants",
				"ref" : ""
			}
		},
		{
			"type" : "Feature",
			"geometry" : {
				"type" : "Point",
				"coordinates" : [ 144.9941336, -37.797041 ]
			},
			"properties" : {
				"lat" : "-37.797041",
				"lon" : "144.9941336",
				"name" : "Kennards Self Storage",
				"street_address" : "1 Abbot Gr Abbotsford VIC 3067",
				"suburb" : "Abbotsford",
				"seats" : "",
				"industry_code" : "3601",
				"industry_desc" : "General Line Grocery Wholesaling",
				"ref" : ""
			}
		},
		{
			"type" : "Feature",
			"geometry" : {
				"type" : "Point",
				"coordinates" : [ 145.0136876, -37.8116332 ]
			},
			"properties" : {
				"lat" : "-37.8116332",
				"lon" : "145.0136876",
				"name" : "Kitty Burns",
				"street_address" : "24 Acacia Pl Abbotsford VIC 3067",
				"suburb" : "Abbotsford",
				"seats" : "",
				"industry_code" : "4511",
				"industry_desc" : "Cafes and Restaurants",
				"ref" : ""
			}
		},
		{
			"type" : "Feature",
			"geometry" : {
				"type" : "Point",
				"coordinates" : [ 144.9930175, -37.8052251 ]
			},
			"properties" : {
				"lat" : "-37.8052251",
				"lon" : "144.9930175",
				"name" : "Laird Hotel",
				"street_address" : "149 Gipps St Abbotsford VIC 3067",
				"suburb" : "Abbotsford",
				"seats" : "",
				"industry_code" : "4520",
				"industry_desc" : "Pubs, Taverns and Bars",
				"ref" : ""
			}
		},
		{
			"type" : "Feature",
			"geometry" : {
				"type" : "Point",
				"coordinates" : [ 145.0037161, -37.8030856 ]
			},
			"properties" : {
				"lat" : "-37.8030856",
				"lon" : "145.0037161",
				"name" : "Lentil as Anything",
				"street_address" : "1 St Heliers St Abbotsford VIC 3067",
				"suburb" : "Abbotsford",
				"seats" : "",
				"industry_code" : "4511",
				"industry_desc" : "Cafes and Restaurants",
				"ref" : ""
			}
		},
		{
			"type" : "Feature",
			"geometry" : {
				"type" : "Point",
				"coordinates" : [ 145.005935, -37.8091582 ]
			},
			"properties" : {
				"lat" : "-37.8091582",
				"lon" : "145.005935",
				"name" : "Little Bertha",
				"street_address" : "44 Duke St Abbotsford VIC 3067",
				"suburb" : "Abbotsford",
				"seats" : "",
				"industry_code" : "1174",
				"industry_desc" : "Bakery Product Manufacturing (Non-factory based)",
				"ref" : ""
			}
		},
		{
			"type" : "Feature",
			"geometry" : {
				"type" : "Point",
				"coordinates" : [ 145.0006346, -37.8019512 ]
			},
			"properties" : {
				"lat" : "-37.8019512",
				"lon" : "145.0006346",
				"name" : "Little Sophia Rudolf Steiner Kindergarten Inc.",
				"street_address" : "35-37 Abbotsford St Abbotsford VIC 3067",
				"suburb" : "Abbotsford",
				"seats" : "",
				"industry_code" : "8710",
				"industry_desc" : "Child Care Services",
				"ref" : ""
			}
		},
		{
			"type" : "Feature",
			"geometry" : {
				"type" : "Point",
				"coordinates" : [ 144.9971376, -37.8029669 ]
			},
			"properties" : {
				"lat" : "-37.8029669",
				"lon" : "144.9971376",
				"name" : "Loosie Grind",
				"street_address" : "135 Nicholson St Abbotsford VIC 3067",
				"suburb" : "Abbotsford",
				"seats" : "",
				"industry_code" : "4512",
				"industry_desc" : "Takeaway Food Services",
				"ref" : ""
			}
		},
		{
			"type" : "Feature",
			"geometry" : {
				"type" : "Point",
				"coordinates" : [ 144.9998, -37.8046 ]
			},
			"properties" : {
				"lat" : "-37.8046",
				"lon" : "144.9998",
				"name" : "Lulie St Tavern",
				"street_address" : "225A-225 Johnston St Abbotsford VIC 3067",
				"suburb" : "Abbotsford",
				"seats" : "",
				"industry_code" : "4520",
				"industry_desc" : "Pubs, Taverns and Bars",
				"ref" : ""
			}
		},
		{
			"type" : "Feature",
			"geometry" : {
				"type" : "Point",
				"coordinates" : [ 144.9975835, -37.8012786 ]
			},
			"properties" : {
				"lat" : "-37.8012786",
				"lon" : "144.9975835",
				"name" : "Magpie Deli",
				"street_address" : "212 Nicholson St Abbotsford VIC 3067",
				"suburb" : "Abbotsford",
				"seats" : "",
				"industry_code" : "4512",
				"industry_desc" : "Takeaway Food Services",
				"ref" : ""
			}
		},
		{
			"type" : "Feature",
			"geometry" : {
				"type" : "Point",
				"coordinates" : [ 144.997007, -37.8030058 ]
			},
			"properties" : {
				"lat" : "-37.8030058",
				"lon" : "144.997007",
				"name" : "Mavis the Grocer",
				"street_address" : "197 Vere St Abbotsford VIC 3067",
				"suburb" : "Abbotsford",
				"seats" : "",
				"industry_code" : "4511",
				"industry_desc" : "Cafes and Restaurants",
				"ref" : ""
			}
		},
		{
			"type" : "Feature",
			"geometry" : {
				"type" : "Point",
				"coordinates" : [ 144.9926059, -37.8096896 ]
			},
			"properties" : {
				"lat" : "-37.8096896",
				"lon" : "144.9926059",
				"name" : "McCoppins Abbotsford",
				"street_address" : "501-509 Victoria St Abbotsford VIC 3067",
				"suburb" : "Abbotsford",
				"seats" : "",
				"industry_code" : "4129",
				"industry_desc" : "Other Specialised Food Retailing",
				"ref" : ""
			}
		},
		{
			"type" : "Feature",
			"geometry" : {
				"type" : "Point",
				"coordinates" : [ 144.9914891, -37.8093898 ]
			},
			"properties" : {
				"lat" : "-37.8093898",
				"lon" : "144.9914891",
				"name" : "McDonalds Family Restaurant #1205",
				"street_address" : "28-40 Hoddle St Abbotsford VIC 3067",
				"suburb" : "Abbotsford",
				"seats" : "",
				"industry_code" : "4511",
				"industry_desc" : "Cafes and Restaurants",
				"ref" : ""
			}
		},
		{
			"type" : "Feature",
			"geometry" : {
				"type" : "Point",
				"coordinates" : [ 145.0018079, -37.802619 ]
			},
			"properties" : {
				"lat" : "-37.802619",
				"lon" : "145.0018079",
				"name" : "Mercy Place Abbotsford",
				"street_address" : "2-10 Clarke St Abbotsford VIC 3067",
				"suburb" : "Abbotsford",
				"seats" : "",
				"industry_code" : "8601",
				"industry_desc" : "Aged Care Residential Services",
				"ref" : ""
			}
		},
		{
			"type" : "Feature",
			"geometry" : {
				"type" : "Point",
				"coordinates" : [ 144.9951513, -37.8002371 ]
			},
			"properties" : {
				"lat" : "-37.8002371",
				"lon" : "144.9951513",
				"name" : "Mesa Greek Cuisine",
				"street_address" : "265 Johnston St Abbotsford VIC 3067",
				"suburb" : "Abbotsford",
				"seats" : "",
				"industry_code" : "4511",
				"industry_desc" : "Cafes and Restaurants",
				"ref" : ""
			}
		},
		{
			"type" : "Feature",
			"geometry" : {
				"type" : "Point",
				"coordinates" : [ 144.9926059, -37.8096896 ]
			},
			"properties" : {
				"lat" : "-37.8096896",
				"lon" : "144.9926059",
				"name" : "Mighty Bear",
				"street_address" : "285A Victoria St Abbotsford VIC 3067",
				"suburb" : "Abbotsford",
				"seats" : "",
				"industry_code" : "4511",
				"industry_desc" : "Cafes and Restaurants",
				"ref" : ""
			}
		},
		{
			"type" : "Feature",
			"geometry" : {
				"type" : "Point",
				"coordinates" : [ 144.9963729, -37.8095858 ]
			},
			"properties" : {
				"lat" : "-37.8095858",
				"lon" : "144.9963729",
				"name" : "Minh Phat Grocery",
				"street_address" : "2-8 Nicholson St Abbotsford VIC 3067",
				"suburb" : "Abbotsford",
				"seats" : "",
				"industry_code" : "4122",
				"industry_desc" : "Fruit and Vegetable Retailing",
				"ref" : ""
			}
		},
		{
			"type" : "Feature",
			"geometry" : {
				"type" : "Point",
				"coordinates" : [ 145.0054449, -37.8099068 ]
			},
			"properties" : {
				"lat" : "-37.8099068",
				"lon" : "145.0054449",
				"name" : "Moon Dog Brewing",
				"street_address" : "17 Duke St Abbotsford VIC 3067",
				"suburb" : "Abbotsford",
				"seats" : "",
				"industry_code" : "1140",
				"industry_desc" : "Fruit and Vegetable Processing",
				"ref" : ""
			}
		},
		{
			"type" : "Feature",
			"geometry" : {
				"type" : "Point",
				"coordinates" : [ 145.0054449, -37.8099068 ]
			},
			"properties" : {
				"lat" : "-37.8099068",
				"lon" : "145.0054449",
				"name" : "Moon Dog Brewing",
				"street_address" : "17 Duke St Abbotsford VIC 3067",
				"suburb" : "Abbotsford",
				"seats" : "",
				"industry_code" : "4511",
				"industry_desc" : "Cafes and Restaurants",
				"ref" : ""
			}
		},
		{
			"type" : "Feature",
			"geometry" : {
				"type" : "Point",
				"coordinates" : [ 144.998466, -37.8069141 ]
			},
			"properties" : {
				"lat" : "-37.8069141",
				"lon" : "144.998466",
				"name" : "Mothership Cafe",
				"street_address" : "6/71 Victoria Cres Abbotsford VIC 3067",
				"suburb" : "Abbotsford",
				"seats" : "",
				"industry_code" : "4511",
				"industry_desc" : "Cafes and Restaurants",
				"ref" : ""
			}
		},
		{
			"type" : "Feature",
			"geometry" : {
				"type" : "Point",
				"coordinates" : [ 144.9928419, -37.8024481 ]
			},
			"properties" : {
				"lat" : "-37.8024481",
				"lon" : "144.9928419",
				"name" : "Mr Boogie Man Bar",
				"street_address" : "160 Hoddle St Abbotsford VIC 3067",
				"suburb" : "Abbotsford",
				"seats" : "",
				"industry_code" : "4520",
				"industry_desc" : "Pubs, Taverns and Bars",
				"ref" : ""
			}
		},
		{
			"type" : "Feature",
			"geometry" : {
				"type" : "Point",
				"coordinates" : [ 144.9939445, -37.7999341 ]
			},
			"properties" : {
				"lat" : "-37.7999341",
				"lon" : "144.9939445",
				"name" : "Native Home, House of Plant",
				"street_address" : "366 Johnston St Abbotsford VIC 3067",
				"suburb" : "Abbotsford",
				"seats" : "",
				"industry_code" : "4520",
				"industry_desc" : "Pubs, Taverns and Bars",
				"ref" : ""
			}
		},
		{
			"type" : "Feature",
			"geometry" : {
				"type" : "Point",
				"coordinates" : [ 144.9926059, -37.8096896 ]
			},
			"properties" : {
				"lat" : "-37.8096896",
				"lon" : "144.9926059",
				"name" : "On It Burgers",
				"street_address" : "349-351 Victoria St Abbotsford VIC 3067",
				"suburb" : "Abbotsford",
				"seats" : "",
				"industry_code" : "4511",
				"industry_desc" : "Cafes and Restaurants",
				"ref" : ""
			}
		},
		{
			"type" : "Feature",
			"geometry" : {
				"type" : "Point",
				"coordinates" : [ 144.9926059, -37.8096896 ]
			},
			"properties" : {
				"lat" : "-37.8096896",
				"lon" : "144.9926059",
				"name" : "One Yada Café",
				"street_address" : "239 Victoria St Abbotsford VIC 3067",
				"suburb" : "Abbotsford",
				"seats" : "",
				"industry_code" : "4511",
				"industry_desc" : "Cafes and Restaurants",
				"ref" : ""
			}
		},
		{
			"type" : "Feature",
			"geometry" : {
				"type" : "Point",
				"coordinates" : [ 144.9926059, -37.8096896 ]
			},
			"properties" : {
				"lat" : "-37.8096896",
				"lon" : "144.9926059",
				"name" : "Orientable",
				"street_address" : "401A Victoria St Abbotsford VIC 3067",
				"suburb" : "Abbotsford",
				"seats" : "",
				"industry_code" : "4511",
				"industry_desc" : "Cafes and Restaurants",
				"ref" : ""
			}
		},
		{
			"type" : "Feature",
			"geometry" : {
				"type" : "Point",
				"coordinates" : [ 144.997036, -37.8028287 ]
			},
			"properties" : {
				"lat" : "-37.8028287",
				"lon" : "144.997036",
				"name" : "Park Hotel",
				"street_address" : "212 Vere St Abbotsford VIC 3067",
				"suburb" : "Abbotsford",
				"seats" : "",
				"industry_code" : "4511",
				"industry_desc" : "Cafes and Restaurants",
				"ref" : ""
			}
		},
		{
			"type" : "Feature",
			"geometry" : {
				"type" : "Point",
				"coordinates" : [ 144.9998, -37.8046 ]
			},
			"properties" : {
				"lat" : "-37.8046",
				"lon" : "144.9998",
				"name" : "Patty Smiths",
				"street_address" : "13/661-663 Victoria St Abbotsford VIC 3067",
				"suburb" : "Abbotsford",
				"seats" : "",
				"industry_code" : "4511",
				"industry_desc" : "Cafes and Restaurants",
				"ref" : ""
			}
		},
		{
			"type" : "Feature",
			"geometry" : {
				"type" : "Point",
				"coordinates" : [ 145.0136876, -37.8116332 ]
			},
			"properties" : {
				"lat" : "-37.8116332",
				"lon" : "145.0136876",
				"name" : "Pink Chilli",
				"street_address" : "807/4 Acacia Pl Abbotsford VIC 3067",
				"suburb" : "Abbotsford",
				"seats" : "",
				"industry_code" : "4129",
				"industry_desc" : "Other Specialised Food Retailing",
				"ref" : ""
			}
		},
		{
			"type" : "Feature",
			"geometry" : {
				"type" : "Point",
				"coordinates" : [ 144.9940645, -37.8052374 ]
			},
			"properties" : {
				"lat" : "-37.8052374",
				"lon" : "144.9940645",
				"name" : "Red Bird Cafe",
				"street_address" : "161 Gipps St Abbotsford VIC 3067",
				"suburb" : "Abbotsford",
				"seats" : "",
				"industry_code" : "4511",
				"industry_desc" : "Cafes and Restaurants",
				"ref" : ""
			}
		},
		{
			"type" : "Feature",
			"geometry" : {
				"type" : "Point",
				"coordinates" : [ 144.9939445, -37.7999341 ]
			},
			"properties" : {
				"lat" : "-37.7999341",
				"lon" : "144.9939445",
				"name" : "Rita's Cafeteria",
				"street_address" : "239-241 Johnston St Abbotsford VIC 3067",
				"suburb" : "Abbotsford",
				"seats" : "",
				"industry_code" : "4511",
				"industry_desc" : "Cafes and Restaurants",
				"ref" : ""
			}
		},
		{
			"type" : "Feature",
			"geometry" : {
				"type" : "Point",
				"coordinates" : [ 144.9939445, -37.7999341 ]
			},
			"properties" : {
				"lat" : "-37.7999341",
				"lon" : "144.9939445",
				"name" : "Rita's Cafeteria",
				"street_address" : "227 Johnston St Abbotsford VIC 3067",
				"suburb" : "Abbotsford",
				"seats" : "",
				"industry_code" : "4512",
				"industry_desc" : "Takeaway Food Services",
				"ref" : ""
			}
		},
		{
			"type" : "Feature",
			"geometry" : {
				"type" : "Point",
				"coordinates" : [ 144.9926059, -37.8096896 ]
			},
			"properties" : {
				"lat" : "-37.8096896",
				"lon" : "144.9926059",
				"name" : "Rouleur Espresso",
				"street_address" : "511 Victoria St Abbotsford VIC 3067",
				"suburb" : "Abbotsford",
				"seats" : "",
				"industry_code" : "4511",
				"industry_desc" : "Cafes and Restaurants",
				"ref" : ""
			}
		},
		{
			"type" : "Feature",
			"geometry" : {
				"type" : "Point",
				"coordinates" : [ 144.9998, -37.8046 ]
			},
			"properties" : {
				"lat" : "-37.8046",
				"lon" : "144.9998",
				"name" : "Saigon Village Fresh Food Centre",
				"street_address" : "11/313 Victoria St Abbotsford VIC 3067",
				"suburb" : "Abbotsford",
				"seats" : "",
				"industry_code" : "4122",
				"industry_desc" : "Fruit and Vegetable Retailing",
				"ref" : ""
			}
		},
		{
			"type" : "Feature",
			"geometry" : {
				"type" : "Point",
				"coordinates" : [ 144.993515, -37.803778 ]
			},
			"properties" : {
				"lat" : "-37.803778",
				"lon" : "144.993515",
				"name" : "Senior Citizens Centre",
				"street_address" : "4 Eddy Ct Abbotsford VIC 3067",
				"suburb" : "Abbotsford",
				"seats" : "",
				"industry_code" : "8601",
				"industry_desc" : "Aged Care Residential Services",
				"ref" : ""
			}
		},
		{
			"type" : "Feature",
			"geometry" : {
				"type" : "Point",
				"coordinates" : [ 144.9926059, -37.8096896 ]
			},
			"properties" : {
				"lat" : "-37.8096896",
				"lon" : "144.9926059",
				"name" : "Seoul Soul Richmond",
				"street_address" : "323-325 Victoria St Abbotsford VIC 3067",
				"suburb" : "Abbotsford",
				"seats" : "",
				"industry_code" : "4511",
				"industry_desc" : "Cafes and Restaurants",
				"ref" : ""
			}
		},
		{
			"type" : "Feature",
			"geometry" : {
				"type" : "Point",
				"coordinates" : [ 144.995093, -37.809884 ]
			},
			"properties" : {
				"lat" : "-37.809884",
				"lon" : "144.995093",
				"name" : "Shizuku",
				"street_address" : "309 Victoria St Abbotsford VIC 3067",
				"suburb" : "Abbotsford",
				"seats" : "",
				"industry_code" : "4511",
				"industry_desc" : "Cafes and Restaurants",
				"ref" : ""
			}
		},
		{
			"type" : "Feature",
			"geometry" : {
				"type" : "Point",
				"coordinates" : [ 144.9961824, -37.8007699 ]
			},
			"properties" : {
				"lat" : "-37.8007699",
				"lon" : "144.9961824",
				"name" : "Simkiss Creations",
				"street_address" : "70 Stafford St Abbotsford VIC 3067",
				"suburb" : "Abbotsford",
				"seats" : "",
				"industry_code" : "4129",
				"industry_desc" : "Other Specialised Food Retailing",
				"ref" : ""
			}
		},
		{
			"type" : "Feature",
			"geometry" : {
				"type" : "Point",
				"coordinates" : [ 144.9926059, -37.8096896 ]
			},
			"properties" : {
				"lat" : "-37.8096896",
				"lon" : "144.9926059",
				"name" : "Singa Pura",
				"street_address" : "409 Victoria St Abbotsford VIC 3067",
				"suburb" : "Abbotsford",
				"seats" : "",
				"industry_code" : "4511",
				"industry_desc" : "Cafes and Restaurants",
				"ref" : ""
			}
		},
		{
			"type" : "Feature",
			"geometry" : {
				"type" : "Point",
				"coordinates" : [ 145.0037161, -37.8030856 ]
			},
			"properties" : {
				"lat" : "-37.8030856",
				"lon" : "145.0037161",
				"name" : "Sophia Mundi Steiner School",
				"street_address" : "1 St Heliers St Abbotsford VIC 3067",
				"suburb" : "Abbotsford",
				"seats" : "",
				"industry_code" : "4511",
				"industry_desc" : "Cafes and Restaurants",
				"ref" : ""
			}
		},
		{
			"type" : "Feature",
			"geometry" : {
				"type" : "Point",
				"coordinates" : [ 145.0037161, -37.8030856 ]
			},
			"properties" : {
				"lat" : "-37.8030856",
				"lon" : "145.0037161",
				"name" : "St Heliers Community Store",
				"street_address" : "1 St Heliers St Abbotsford VIC 3067",
				"suburb" : "Abbotsford",
				"seats" : "",
				"industry_code" : "4511",
				"industry_desc" : "Cafes and Restaurants",
				"ref" : ""
			}
		},
		{
			"type" : "Feature",
			"geometry" : {
				"type" : "Point",
				"coordinates" : [ 144.9923949, -37.8093417 ]
			},
			"properties" : {
				"lat" : "-37.8093417",
				"lon" : "144.9923949",
				"name" : "Talad Thai",
				"street_address" : "1-5 Ferguson St Abbotsford VIC 3067",
				"suburb" : "Abbotsford",
				"seats" : "",
				"industry_code" : "4110",
				"industry_desc" : "Supermarket and Grocery Stores",
				"ref" : ""
			}
		},
		{
			"type" : "Feature",
			"geometry" : {
				"type" : "Point",
				"coordinates" : [ 144.9932344, -37.8056011 ]
			},
			"properties" : {
				"lat" : "-37.8056011",
				"lon" : "144.9932344",
				"name" : "Tea Tonic",
				"street_address" : "43-45 Russell St Abbotsford VIC 3067",
				"suburb" : "Abbotsford",
				"seats" : "",
				"industry_code" : "1140",
				"industry_desc" : "Fruit and Vegetable Processing",
				"ref" : ""
			}
		},
		{
			"type" : "Feature",
			"geometry" : {
				"type" : "Point",
				"coordinates" : [ 144.9926059, -37.8096896 ]
			},
			"properties" : {
				"lat" : "-37.8096896",
				"lon" : "144.9926059",
				"name" : "Terminus Hotel",
				"street_address" : "605 Victoria St Abbotsford VIC 3067",
				"suburb" : "Abbotsford",
				"seats" : "",
				"industry_code" : "4511",
				"industry_desc" : "Cafes and Restaurants",
				"ref" : ""
			}
		},
		{
			"type" : "Feature",
			"geometry" : {
				"type" : "Point",
				"coordinates" : [ 144.9926059, -37.8096896 ]
			},
			"properties" : {
				"lat" : "-37.8096896",
				"lon" : "144.9926059",
				"name" : "Thaiger Rabbit",
				"street_address" : "391 Victoria St Abbotsford VIC 3067",
				"suburb" : "Abbotsford",
				"seats" : "",
				"industry_code" : "4511",
				"industry_desc" : "Cafes and Restaurants",
				"ref" : ""
			}
		},
		{
			"type" : "Feature",
			"geometry" : {
				"type" : "Point",
				"coordinates" : [ 144.9941797, -37.8073834 ]
			},
			"properties" : {
				"lat" : "-37.8073834",
				"lon" : "144.9941797",
				"name" : "The Carringbush Hotel",
				"street_address" : "226-228 Langridge St Abbotsford VIC 3067",
				"suburb" : "Abbotsford",
				"seats" : "",
				"industry_code" : "4511",
				"industry_desc" : "Cafes and Restaurants",
				"ref" : ""
			}
		},
		{
			"type" : "Feature",
			"geometry" : {
				"type" : "Point",
				"coordinates" : [ 144.9926059, -37.8096896 ]
			},
			"properties" : {
				"lat" : "-37.8096896",
				"lon" : "144.9926059",
				"name" : "The E Lounge",
				"street_address" : "409A Victoria St Abbotsford VIC 3067",
				"suburb" : "Abbotsford",
				"seats" : "",
				"industry_code" : "4511",
				"industry_desc" : "Cafes and Restaurants",
				"ref" : ""
			}
		},
		{
			"type" : "Feature",
			"geometry" : {
				"type" : "Point",
				"coordinates" : [ 145.002485, -37.8013452 ]
			},
			"properties" : {
				"lat" : "-37.8013452",
				"lon" : "145.002485",
				"name" : "The Early Learning Centre",
				"street_address" : "40 Clarke St Abbotsford VIC 3067",
				"suburb" : "Abbotsford",
				"seats" : "",
				"industry_code" : "4129",
				"industry_desc" : "Other Specialised Food Retailing",
				"ref" : ""
			}
		},
		{
			"type" : "Feature",
			"geometry" : {
				"type" : "Point",
				"coordinates" : [ 145.0030113, -37.8018626 ]
			},
			"properties" : {
				"lat" : "-37.8018626",
				"lon" : "145.0030113",
				"name" : "The Farm Café",
				"street_address" : "16 St Heliers St Abbotsford VIC 3067",
				"suburb" : "Abbotsford",
				"seats" : "",
				"industry_code" : "4511",
				"industry_desc" : "Cafes and Restaurants",
				"ref" : ""
			}
		},
		{
			"type" : "Feature",
			"geometry" : {
				"type" : "Point",
				"coordinates" : [ 144.992356, -37.805262 ]
			},
			"properties" : {
				"lat" : "-37.805262",
				"lon" : "144.992356",
				"name" : "The Happy Mexican",
				"street_address" : "108 Hoddle St Abbotsford VIC 3067",
				"suburb" : "Abbotsford",
				"seats" : "",
				"industry_code" : "4511",
				"industry_desc" : "Cafes and Restaurants",
				"ref" : ""
			}
		},
		{
			"type" : "Feature",
			"geometry" : {
				"type" : "Point",
				"coordinates" : [ 144.9976991, -37.8010822 ]
			},
			"properties" : {
				"lat" : "-37.8010822",
				"lon" : "144.9976991",
				"name" : "The Retreat Hotel Abbotsford",
				"street_address" : "226 Nicholson St Abbotsford VIC 3067",
				"suburb" : "Abbotsford",
				"seats" : "",
				"industry_code" : "4511",
				"industry_desc" : "Cafes and Restaurants",
				"ref" : ""
			}
		},
		{
			"type" : "Feature",
			"geometry" : {
				"type" : "Point",
				"coordinates" : [ 144.9926059, -37.8096896 ]
			},
			"properties" : {
				"lat" : "-37.8096896",
				"lon" : "144.9926059",
				"name" : "The Vic",
				"street_address" : "279 Victoria St Abbotsford VIC 3067",
				"suburb" : "Abbotsford",
				"seats" : "",
				"industry_code" : "4520",
				"industry_desc" : "Pubs, Taverns and Bars",
				"ref" : ""
			}
		},
		{
			"type" : "Feature",
			"geometry" : {
				"type" : "Point",
				"coordinates" : [ 144.9965293, -37.8074923 ]
			},
			"properties" : {
				"lat" : "-37.8074923",
				"lon" : "144.9965293",
				"name" : "Three Bags Full Cafe",
				"street_address" : "58 Nicholson St Abbotsford VIC 3067",
				"suburb" : "Abbotsford",
				"seats" : "",
				"industry_code" : "4511",
				"industry_desc" : "Cafes and Restaurants",
				"ref" : ""
			}
		},
		{
			"type" : "Feature",
			"geometry" : {
				"type" : "Point",
				"coordinates" : [ 144.9926059, -37.8096896 ]
			},
			"properties" : {
				"lat" : "-37.8096896",
				"lon" : "144.9926059",
				"name" : "Tien Loi Pool Hall",
				"street_address" : "441 Victoria St Abbotsford VIC 3067",
				"suburb" : "Abbotsford",
				"seats" : "",
				"industry_code" : "4520",
				"industry_desc" : "Pubs, Taverns and Bars",
				"ref" : ""
			}
		},
		{
			"type" : "Feature",
			"geometry" : {
				"type" : "Point",
				"coordinates" : [ 144.992161, -37.809608 ]
			},
			"properties" : {
				"lat" : "-37.809608",
				"lon" : "144.992161",
				"name" : "Tom Toon Thai Noodle Café",
				"street_address" : "241 Victoria St Abbotsford VIC 3067",
				"suburb" : "Abbotsford",
				"seats" : "",
				"industry_code" : "4511",
				"industry_desc" : "Cafes and Restaurants",
				"ref" : ""
			}
		},
		{
			"type" : "Feature",
			"geometry" : {
				"type" : "Point",
				"coordinates" : [ 144.9939445, -37.7999341 ]
			},
			"properties" : {
				"lat" : "-37.7999341",
				"lon" : "144.9939445",
				"name" : "Trenerry Cafe",
				"street_address" : "436-438 Johnston St Abbotsford VIC 3067",
				"suburb" : "Abbotsford",
				"seats" : "",
				"industry_code" : "4511",
				"industry_desc" : "Cafes and Restaurants",
				"ref" : ""
			}
		},
		{
			"type" : "Feature",
			"geometry" : {
				"type" : "Point",
				"coordinates" : [ 144.9926059, -37.8096896 ]
			},
			"properties" : {
				"lat" : "-37.8096896",
				"lon" : "144.9926059",
				"name" : "Two Hands Bar",
				"street_address" : "311A Victoria St Abbotsford VIC 3067",
				"suburb" : "Abbotsford",
				"seats" : "",
				"industry_code" : "4511",
				"industry_desc" : "Cafes and Restaurants",
				"ref" : ""
			}
		},
		{
			"type" : "Feature",
			"geometry" : {
				"type" : "Point",
				"coordinates" : [ 144.9926059, -37.8096896 ]
			},
			"properties" : {
				"lat" : "-37.8096896",
				"lon" : "144.9926059",
				"name" : "Victoria Street Cellars",
				"street_address" : "275 Victoria St Abbotsford VIC 3067",
				"suburb" : "Abbotsford",
				"seats" : "",
				"industry_code" : "4129",
				"industry_desc" : "Other Specialised Food Retailing",
				"ref" : ""
			}
		},
		{
			"type" : "Feature",
			"geometry" : {
				"type" : "Point",
				"coordinates" : [ 144.9926059, -37.8096896 ]
			},
			"properties" : {
				"lat" : "-37.8096896",
				"lon" : "144.9926059",
				"name" : "Vinh Vinh Restaurant",
				"street_address" : "387 Victoria St Abbotsford VIC 3067",
				"suburb" : "Abbotsford",
				"seats" : "",
				"industry_code" : "4511",
				"industry_desc" : "Cafes and Restaurants",
				"ref" : ""
			}
		},
		{
			"type" : "Feature",
			"geometry" : {
				"type" : "Point",
				"coordinates" : [ 144.9926059, -37.8096896 ]
			},
			"properties" : {
				"lat" : "-37.8096896",
				"lon" : "144.9926059",
				"name" : "Volume 2",
				"street_address" : "385 Victoria St Abbotsford VIC 3067",
				"suburb" : "Abbotsford",
				"seats" : "",
				"industry_code" : "4511",
				"industry_desc" : "Cafes and Restaurants",
				"ref" : ""
			}
		},
		{
			"type" : "Feature",
			"geometry" : {
				"type" : "Point",
				"coordinates" : [ 144.993515, -37.803778 ]
			},
			"properties" : {
				"lat" : "-37.803778",
				"lon" : "144.993515",
				"name" : "Willowview Day Centre",
				"street_address" : "6 Eddy Ct Abbotsford VIC 3067",
				"suburb" : "Abbotsford",
				"seats" : "",
				"industry_code" : "8601",
				"industry_desc" : "Aged Care Residential Services",
				"ref" : ""
			}
		},
		{
			"type" : "Feature",
			"geometry" : {
				"type" : "Point",
				"coordinates" : [ 144.9926059, -37.8096896 ]
			},
			"properties" : {
				"lat" : "-37.8096896",
				"lon" : "144.9926059",
				"name" : "Woolworths Abbotsford",
				"street_address" : "313-321 Victoria St Abbotsford VIC 3067",
				"suburb" : "Abbotsford",
				"seats" : "",
				"industry_code" : "4110",
				"industry_desc" : "Supermarket and Grocery Stores",
				"ref" : ""
			}
		},
		{
			"type" : "Feature",
			"geometry" : {
				"type" : "Point",
				"coordinates" : [ 144.9939445, -37.7999341 ]
			},
			"properties" : {
				"lat" : "-37.7999341",
				"lon" : "144.9939445",
				"name" : "Yarra Hotel",
				"street_address" : "293-297 Johnston St Abbotsford VIC 3067",
				"suburb" : "Abbotsford",
				"seats" : "",
				"industry_code" : "4511",
				"industry_desc" : "Cafes and Restaurants",
				"ref" : ""
			}
		},
		{
			"type" : "Feature",
			"geometry" : {
				"type" : "Point",
				"coordinates" : [ 144.9914891, -37.8093898 ]
			},
			"properties" : {
				"lat" : "-37.8093898",
				"lon" : "144.9914891",
				"name" : "Yorkshire Stingo Hotel",
				"street_address" : "44-48 Hoddle St Abbotsford VIC 3067",
				"suburb" : "Abbotsford",
				"seats" : "",
				"industry_code" : "4511",
				"industry_desc" : "Cafes and Restaurants",
				"ref" : ""
			}
		},
		{
			"type" : "Feature",
			"geometry" : {
				"type" : "Point",
				"coordinates" : [ 144.9926059, -37.8096896 ]
			},
			"properties" : {
				"lat" : "-37.8096896",
				"lon" : "144.9926059",
				"name" : "Yuri Sushi House Abbotsford",
				"street_address" : "12/313 Victoria St Abbotsford VIC 3067",
				"suburb" : "Abbotsford",
				"seats" : "",
				"industry_code" : "4511",
				"industry_desc" : "Cafes and Restaurants",
				"ref" : ""
			}
		},
		{
			"type" : "Feature",
			"geometry" : {
				"type" : "Point",
				"coordinates" : [ 145.0226, -37.7829 ]
			},
			"properties" : {
				"lat" : "-37.7829",
				"lon" : "145.0226",
				"name" : "Alphington Aged Care",
				"street_address" : "9-11 Old Heidelberg Rd Alphington VIC 3078",
				"suburb" : "Alphington",
				"seats" : "",
				"industry_code" : "8601",
				"industry_desc" : "Aged Care Residential Services",
				"ref" : ""
			}
		},
		{
			"type" : "Feature",
			"geometry" : {
				"type" : "Point",
				"coordinates" : [ 145.0289989, -37.7841929 ]
			},
			"properties" : {
				"lat" : "-37.7841929",
				"lon" : "145.0289989",
				"name" : "Alphington Bowls Club",
				"street_address" : "Parkview Rd Alphington VIC 3078",
				"suburb" : "Alphington",
				"seats" : "",
				"industry_code" : "4530",
				"industry_desc" : "Clubs (Hospitality)",
				"ref" : ""
			}
		},
		{
			"type" : "Feature",
			"geometry" : {
				"type" : "Point",
				"coordinates" : [ 145.0289989, -37.7841929 ]
			},
			"properties" : {
				"lat" : "-37.7841929",
				"lon" : "145.0289989",
				"name" : "Alphington Football Club",
				"street_address" : "Parkview Rd Alphington VIC 3078",
				"suburb" : "Alphington",
				"seats" : "",
				"industry_code" : "4530",
				"industry_desc" : "Clubs (Hospitality)",
				"ref" : ""
			}
		},
		{
			"type" : "Feature",
			"geometry" : {
				"type" : "Point",
				"coordinates" : [ 145.0320733, -37.7816187 ]
			},
			"properties" : {
				"lat" : "-37.7816187",
				"lon" : "145.0320733",
				"name" : "Alphington Primary School",
				"street_address" : "26 Yarralea St Alphington VIC 3078",
				"suburb" : "Alphington",
				"seats" : "",
				"industry_code" : "4511",
				"industry_desc" : "Cafes and Restaurants",
				"ref" : ""
			}
		},
		{
			"type" : "Feature",
			"geometry" : {
				"type" : "Point",
				"coordinates" : [ 145.0320733, -37.7816187 ]
			},
			"properties" : {
				"lat" : "-37.7816187",
				"lon" : "145.0320733",
				"name" : "Alphington Primary School OSHCLUB",
				"street_address" : "26 Yarralea St Alphington VIC 3078",
				"suburb" : "Alphington",
				"seats" : "",
				"industry_code" : "4511",
				"industry_desc" : "Cafes and Restaurants",
				"ref" : ""
			}
		},
		{
			"type" : "Feature",
			"geometry" : {
				"type" : "Point",
				"coordinates" : [ 145.0334394, -37.7832356 ]
			},
			"properties" : {
				"lat" : "-37.7832356",
				"lon" : "145.0334394",
				"name" : "Arnica Lodge",
				"street_address" : "12-14 Como St Alphington VIC 3078",
				"suburb" : "Alphington",
				"seats" : "",
				"industry_code" : "8609",
				"industry_desc" : "Other Residential Care Services",
				"ref" : ""
			}
		},
		{
			"type" : "Feature",
			"geometry" : {
				"type" : "Point",
				"coordinates" : [ 145.0359919, -37.7788463 ]
			},
			"properties" : {
				"lat" : "-37.7788463",
				"lon" : "145.0359919",
				"name" : "Benjamin's Kitchen",
				"street_address" : "758 Heidelberg Rd Alphington VIC 3078",
				"suburb" : "Alphington",
				"seats" : "",
				"industry_code" : "4511",
				"industry_desc" : "Cafes and Restaurants",
				"ref" : ""
			}
		},
		{
			"type" : "Feature",
			"geometry" : {
				"type" : "Point",
				"coordinates" : [ 145.0226, -37.7829 ]
			},
			"properties" : {
				"lat" : "-37.7829",
				"lon" : "145.0226",
				"name" : "Bluebird Catering @ Alphington Grammar School",
				"street_address" : "12-18 Old Heidelberg Rd Alphington VIC 3078",
				"suburb" : "Alphington",
				"seats" : "",
				"industry_code" : "4511",
				"industry_desc" : "Cafes and Restaurants",
				"ref" : ""
			}
		},
		{
			"type" : "Feature",
			"geometry" : {
				"type" : "Point",
				"coordinates" : [ 145.0334394, -37.7832356 ]
			},
			"properties" : {
				"lat" : "-37.7832356",
				"lon" : "145.0334394",
				"name" : "Gum Nut Pre School and Child Care",
				"street_address" : "1 Como St Alphington VIC 3078",
				"suburb" : "Alphington",
				"seats" : "",
				"industry_code" : "8710",
				"industry_desc" : "Child Care Services",
				"ref" : ""
			}
		},
		{
			"type" : "Feature",
			"geometry" : {
				"type" : "Point",
				"coordinates" : [ 145.0335084, -37.782788 ]
			},
			"properties" : {
				"lat" : "-37.782788",
				"lon" : "145.0335084",
				"name" : "Jam By Fiona",
				"street_address" : "2 St Bernards Rd Alphington VIC 3078",
				"suburb" : "Alphington",
				"seats" : "",
				"industry_code" : "4129",
				"industry_desc" : "Other Specialised Food Retailing",
				"ref" : ""
			}
		},
		{
			"type" : "Feature",
			"geometry" : {
				"type" : "Point",
				"coordinates" : [ 145.0359919, -37.7788463 ]
			},
			"properties" : {
				"lat" : "-37.7788463",
				"lon" : "145.0359919",
				"name" : "Kissaten Alphington",
				"street_address" : "538-540 Heidelberg Rd Alphington VIC 3078",
				"suburb" : "Alphington",
				"seats" : "",
				"industry_code" : "4511",
				"industry_desc" : "Cafes and Restaurants",
				"ref" : ""
			}
		},
		{
			"type" : "Feature",
			"geometry" : {
				"type" : "Point",
				"coordinates" : [ 145.036408, -37.7831049 ]
			},
			"properties" : {
				"lat" : "-37.7831049",
				"lon" : "145.036408",
				"name" : "Latrobe Golf Club",
				"street_address" : "Farm Rd Alphington VIC 3078",
				"suburb" : "Alphington",
				"seats" : "",
				"industry_code" : "4511",
				"industry_desc" : "Cafes and Restaurants",
				"ref" : ""
			}
		},
		{
			"type" : "Feature",
			"geometry" : {
				"type" : "Point",
				"coordinates" : [ 145.0289989, -37.7841929 ]
			},
			"properties" : {
				"lat" : "-37.7841929",
				"lon" : "145.0289989",
				"name" : "Northcote United Cricket Club",
				"street_address" : "Parkview Rd Alphington VIC 3078",
				"suburb" : "Alphington",
				"seats" : "",
				"industry_code" : "4530",
				"industry_desc" : "Clubs (Hospitality)",
				"ref" : ""
			}
		},
		{
			"type" : "Feature",
			"geometry" : {
				"type" : "Point",
				"coordinates" : [ 145.0359919, -37.7788463 ]
			},
			"properties" : {
				"lat" : "-37.7788463",
				"lon" : "145.0359919",
				"name" : "Red Rooster",
				"street_address" : "800 Heidelberg Rd Alphington VIC 3078",
				"suburb" : "Alphington",
				"seats" : "",
				"industry_code" : "4512",
				"industry_desc" : "Takeaway Food Services",
				"ref" : ""
			}
		},
		{
			"type" : "Feature",
			"geometry" : {
				"type" : "Point",
				"coordinates" : [ 145.0241787, -37.7838778 ]
			},
			"properties" : {
				"lat" : "-37.7838778",
				"lon" : "145.0241787",
				"name" : "Swiss Made",
				"street_address" : "33/23 Coate Ave Alphington VIC 3078",
				"suburb" : "Alphington",
				"seats" : "",
				"industry_code" : "4129",
				"industry_desc" : "Other Specialised Food Retailing",
				"ref" : ""
			}
		},
		{
			"type" : "Feature",
			"geometry" : {
				"type" : "Point",
				"coordinates" : [ 145.0322161, -37.7860485 ]
			},
			"properties" : {
				"lat" : "-37.7860485",
				"lon" : "145.0322161",
				"name" : "Van di Vino",
				"street_address" : "2/2 Riverbrae Ct Alphington VIC 3078",
				"suburb" : "Alphington",
				"seats" : "",
				"industry_code" : "3601",
				"industry_desc" : "General Line Grocery Wholesaling",
				"ref" : ""
			}
		},
		{
			"type" : "Feature",
			"geometry" : {
				"type" : "Point",
				"coordinates" : [ 145.0207791, -37.8303628 ]
			},
			"properties" : {
				"lat" : "-37.8303628",
				"lon" : "145.0207791",
				"name" : "Alemannia Richmond Soccer Club",
				"street_address" : "6 F R Smith Dr Burnley VIC 3121",
				"suburb" : "Burnley",
				"seats" : "",
				"industry_code" : "4530",
				"industry_desc" : "Clubs (Hospitality)",
				"ref" : ""
			}
		},
		{
			"type" : "Feature",
			"geometry" : {
				"type" : "Point",
				"coordinates" : [ 145.0207791, -37.8303628 ]
			},
			"properties" : {
				"lat" : "-37.8303628",
				"lon" : "145.0207791",
				"name" : "Burnley C.Y.M.S. Cricket Club",
				"street_address" : "4 F R Smith Dr Burnley VIC 3121",
				"suburb" : "Burnley",
				"seats" : "",
				"industry_code" : "4530",
				"industry_desc" : "Clubs (Hospitality)",
				"ref" : ""
			}
		},
		{
			"type" : "Feature",
			"geometry" : {
				"type" : "Point",
				"coordinates" : [ 145.0128166, -37.8281911 ]
			},
			"properties" : {
				"lat" : "-37.8281911",
				"lon" : "145.0128166",
				"name" : "Burnley Golf Course Kiosk",
				"street_address" : "12 Loyola Gr Burnley VIC 3121",
				"suburb" : "Burnley",
				"seats" : "",
				"industry_code" : "4512",
				"industry_desc" : "Takeaway Food Services",
				"ref" : ""
			}
		},
		{
			"type" : "Feature",
			"geometry" : {
				"type" : "Point",
				"coordinates" : [ 145.0207791, -37.8303628 ]
			},
			"properties" : {
				"lat" : "-37.8303628",
				"lon" : "145.0207791",
				"name" : "Collingwood City Soccer",
				"street_address" : "4 F R Smith Dr Burnley VIC 3121",
				"suburb" : "Burnley",
				"seats" : "",
				"industry_code" : "4530",
				"industry_desc" : "Clubs (Hospitality)",
				"ref" : ""
			}
		},
		{
			"type" : "Feature",
			"geometry" : {
				"type" : "Point",
				"coordinates" : [ 145.0191947, -37.8267872 ]
			},
			"properties" : {
				"lat" : "-37.8267872",
				"lon" : "145.0191947",
				"name" : "Convenience @Botanicca",
				"street_address" : "3/574 Swan St Burnley VIC 3121",
				"suburb" : "Burnley",
				"seats" : "",
				"industry_code" : "4129",
				"industry_desc" : "Other Specialised Food Retailing",
				"ref" : ""
			}
		},
		{
			"type" : "Feature",
			"geometry" : {
				"type" : "Point",
				"coordinates" : [ 145.0197657, -37.8269256 ]
			},
			"properties" : {
				"lat" : "-37.8269256",
				"lon" : "145.0197657",
				"name" : "David Jones Botanicca – Food (Building 1 & 2)",
				"street_address" : "572 Swan St Burnley VIC 3121",
				"suburb" : "Burnley",
				"seats" : "",
				"industry_code" : "4110",
				"industry_desc" : "Supermarket and Grocery Stores",
				"ref" : ""
			}
		},
		{
			"type" : "Feature",
			"geometry" : {
				"type" : "Point",
				"coordinates" : [ 145.0191947, -37.8267872 ]
			},
			"properties" : {
				"lat" : "-37.8267872",
				"lon" : "145.0191947",
				"name" : "Element Melbourne Richmond",
				"street_address" : "588 Swan St Burnley VIC 3121",
				"suburb" : "Burnley",
				"seats" : "",
				"industry_code" : "4511",
				"industry_desc" : "Cafes and Restaurants",
				"ref" : ""
			}
		},
		{
			"type" : "Feature",
			"geometry" : {
				"type" : "Point",
				"coordinates" : [ 145.0146585, -37.8305842 ]
			},
			"properties" : {
				"lat" : "-37.8305842",
				"lon" : "145.0146585",
				"name" : "Richmond Central Amateur Football Club",
				"street_address" : "Yarra Bvd Burnley VIC 3121",
				"suburb" : "Burnley",
				"seats" : "",
				"industry_code" : "4530",
				"industry_desc" : "Clubs (Hospitality)",
				"ref" : ""
			}
		},
		{
			"type" : "Feature",
			"geometry" : {
				"type" : "Point",
				"coordinates" : [ 145.0207791, -37.8303628 ]
			},
			"properties" : {
				"lat" : "-37.8303628",
				"lon" : "145.0207791",
				"name" : "Richmond City Cricket Club",
				"street_address" : "2 F R Smith Dr Burnley VIC 3121",
				"suburb" : "Burnley",
				"seats" : "",
				"industry_code" : "4530",
				"industry_desc" : "Clubs (Hospitality)",
				"ref" : ""
			}
		},
		{
			"type" : "Feature",
			"geometry" : {
				"type" : "Point",
				"coordinates" : [ 145.0197657, -37.8269256 ]
			},
			"properties" : {
				"lat" : "-37.8269256",
				"lon" : "145.0197657",
				"name" : "Roma Botannica Cafe & Juice Bar",
				"street_address" : "570-572 Swan St Burnley VIC 3121",
				"suburb" : "Burnley",
				"seats" : "",
				"industry_code" : "4511",
				"industry_desc" : "Cafes and Restaurants",
				"ref" : ""
			}
		},
		{
			"type" : "Feature",
			"geometry" : {
				"type" : "Point",
				"coordinates" : [ 145.0151568, -37.8278541 ]
			},
			"properties" : {
				"lat" : "-37.8278541",
				"lon" : "145.0151568",
				"name" : "Serotonin",
				"street_address" : "52 Madden Gr Burnley VIC 3121",
				"suburb" : "Burnley",
				"seats" : "",
				"industry_code" : "4511",
				"industry_desc" : "Cafes and Restaurants",
				"ref" : ""
			}
		},
		{
			"type" : "Feature",
			"geometry" : {
				"type" : "Point",
				"coordinates" : [ 145.0197657, -37.8269256 ]
			},
			"properties" : {
				"lat" : "-37.8269256",
				"lon" : "145.0197657",
				"name" : "Shuji Sushi Botanicca",
				"street_address" : "572 Swan St Burnley VIC 3121",
				"suburb" : "Burnley",
				"seats" : "",
				"industry_code" : "4511",
				"industry_desc" : "Cafes and Restaurants",
				"ref" : ""
			}
		},
		{
			"type" : "Feature",
			"geometry" : {
				"type" : "Point",
				"coordinates" : [ 145.020379, -37.8267382 ]
			},
			"properties" : {
				"lat" : "-37.8267382",
				"lon" : "145.020379",
				"name" : "Street Kitchen Co.",
				"street_address" : "582 Swan St Burnley VIC 3121",
				"suburb" : "Burnley",
				"seats" : "",
				"industry_code" : "4511",
				"industry_desc" : "Cafes and Restaurants",
				"ref" : ""
			}
		},
		{
			"type" : "Feature",
			"geometry" : {
				"type" : "Point",
				"coordinates" : [ 145.0064, -37.8271 ]
			},
			"properties" : {
				"lat" : "-37.8271",
				"lon" : "145.0064",
				"name" : "The Common Cafe & Bar & Birdie",
				"street_address" : "576-588 Swan St Burnley VIC 3121",
				"suburb" : "Burnley",
				"seats" : "",
				"industry_code" : "4511",
				"industry_desc" : "Cafes and Restaurants",
				"ref" : ""
			}
		},
		{
			"type" : "Feature",
			"geometry" : {
				"type" : "Point",
				"coordinates" : [ 145.0067402, -37.8286172 ]
			},
			"properties" : {
				"lat" : "-37.8286172",
				"lon" : "145.0067402",
				"name" : "The Dessert Parlour",
				"street_address" : "435 Burnley St Burnley VIC 3121",
				"suburb" : "Burnley",
				"seats" : "",
				"industry_code" : "1174",
				"industry_desc" : "Bakery Product Manufacturing (Non-factory based)",
				"ref" : ""
			}
		},
		{
			"type" : "Feature",
			"geometry" : {
				"type" : "Point",
				"coordinates" : [ 145.0197657, -37.8269256 ]
			},
			"properties" : {
				"lat" : "-37.8269256",
				"lon" : "145.0197657",
				"name" : "The Shed",
				"street_address" : "570-572 Swan St Burnley VIC 3121",
				"suburb" : "Burnley",
				"seats" : "",
				"industry_code" : "4511",
				"industry_desc" : "Cafes and Restaurants",
				"ref" : ""
			}
		},
		{
			"type" : "Feature",
			"geometry" : {
				"type" : "Point",
				"coordinates" : [ 144.9760716, -37.7908137 ]
			},
			"properties" : {
				"lat" : "-37.7908137",
				"lon" : "144.9760716",
				"name" : "A Fan's Notes",
				"street_address" : "787 Nicholson St Carlton North VIC 3054",
				"suburb" : "Carlton North",
				"seats" : "",
				"industry_code" : "4511",
				"industry_desc" : "Cafes and Restaurants",
				"ref" : ""
			}
		},
		{
			"type" : "Feature",
			"geometry" : {
				"type" : "Point",
				"coordinates" : [ 144.9760716, -37.7908137 ]
			},
			"properties" : {
				"lat" : "-37.7908137",
				"lon" : "144.9760716",
				"name" : "A Treat of France",
				"street_address" : "765 Nicholson St Carlton North VIC 3054",
				"suburb" : "Carlton North",
				"seats" : "",
				"industry_code" : "1174",
				"industry_desc" : "Bakery Product Manufacturing (Non-factory based)",
				"ref" : ""
			}
		},
		{
			"type" : "Feature",
			"geometry" : {
				"type" : "Point",
				"coordinates" : [ 144.9760716, -37.7908137 ]
			},
			"properties" : {
				"lat" : "-37.7908137",
				"lon" : "144.9760716",
				"name" : "Afro Hub",
				"street_address" : "727 Nicholson St Carlton North VIC 3054",
				"suburb" : "Carlton North",
				"seats" : "",
				"industry_code" : "4511",
				"industry_desc" : "Cafes and Restaurants",
				"ref" : ""
			}
		},
		{
			"type" : "Feature",
			"geometry" : {
				"type" : "Point",
				"coordinates" : [ 144.9760716, -37.7908137 ]
			},
			"properties" : {
				"lat" : "-37.7908137",
				"lon" : "144.9760716",
				"name" : "Angelo Pasticceria",
				"street_address" : "757 Nicholson St Carlton North VIC 3054",
				"suburb" : "Carlton North",
				"seats" : "",
				"industry_code" : "1174",
				"industry_desc" : "Bakery Product Manufacturing (Non-factory based)",
				"ref" : ""
			}
		},
		{
			"type" : "Feature",
			"geometry" : {
				"type" : "Point",
				"coordinates" : [ 144.9690883, -37.787827 ]
			},
			"properties" : {
				"lat" : "-37.787827",
				"lon" : "144.9690883",
				"name" : "Art Stems on Lygon",
				"street_address" : "1018 Lygon St Carlton North VIC 3054",
				"suburb" : "Carlton North",
				"seats" : "",
				"industry_code" : "4129",
				"industry_desc" : "Other Specialised Food Retailing",
				"ref" : ""
			}
		},
		{
			"type" : "Feature",
			"geometry" : {
				"type" : "Point",
				"coordinates" : [ 144.9760716, -37.7908137 ]
			},
			"properties" : {
				"lat" : "-37.7908137",
				"lon" : "144.9760716",
				"name" : "Babajan",
				"street_address" : "713 Nicholson St Carlton North VIC 3054",
				"suburb" : "Carlton North",
				"seats" : "",
				"industry_code" : "4511",
				"industry_desc" : "Cafes and Restaurants",
				"ref" : ""
			}
		},
		{
			"type" : "Feature",
			"geometry" : {
				"type" : "Point",
				"coordinates" : [ 144.9760716, -37.7908137 ]
			},
			"properties" : {
				"lat" : "-37.7908137",
				"lon" : "144.9760716",
				"name" : "Bar Fred",
				"street_address" : "797 Nicholson St Carlton North VIC 3054",
				"suburb" : "Carlton North",
				"seats" : "",
				"industry_code" : "4511",
				"industry_desc" : "Cafes and Restaurants",
				"ref" : ""
			}
		},
		{
			"type" : "Feature",
			"geometry" : {
				"type" : "Point",
				"coordinates" : [ 144.9710794, -37.7911566 ]
			},
			"properties" : {
				"lat" : "-37.7911566",
				"lon" : "144.9710794",
				"name" : "Big Childcare - Carlton North Primary School OSHC",
				"street_address" : "60 Lee St Carlton North VIC 3054",
				"suburb" : "Carlton North",
				"seats" : "",
				"industry_code" : "4511",
				"industry_desc" : "Cafes and Restaurants",
				"ref" : ""
			}
		},
		{
			"type" : "Feature",
			"geometry" : {
				"type" : "Point",
				"coordinates" : [ 144.971424, -37.792518 ]
			},
			"properties" : {
				"lat" : "-37.792518",
				"lon" : "144.971424",
				"name" : "Biscotteria",
				"street_address" : "288 Rathdowne St Carlton North VIC 3054",
				"suburb" : "Carlton North",
				"seats" : "",
				"industry_code" : "4511",
				"industry_desc" : "Cafes and Restaurants",
				"ref" : ""
			}
		},
		{
			"type" : "Feature",
			"geometry" : {
				"type" : "Point",
				"coordinates" : [ 144.9710794, -37.7911566 ]
			},
			"properties" : {
				"lat" : "-37.7911566",
				"lon" : "144.9710794",
				"name" : "Brandon Hotel",
				"street_address" : "18-20 Lee St Carlton North VIC 3054",
				"suburb" : "Carlton North",
				"seats" : "",
				"industry_code" : "4511",
				"industry_desc" : "Cafes and Restaurants",
				"ref" : ""
			}
		},
		{
			"type" : "Feature",
			"geometry" : {
				"type" : "Point",
				"coordinates" : [ 144.9739257, -37.7912151 ]
			},
			"properties" : {
				"lat" : "-37.7912151",
				"lon" : "144.9739257",
				"name" : "Cafe Bu",
				"street_address" : "585 Canning St Carlton North VIC 3054",
				"suburb" : "Carlton North",
				"seats" : "",
				"industry_code" : "4511",
				"industry_desc" : "Cafes and Restaurants",
				"ref" : ""
			}
		},
		{
			"type" : "Feature",
			"geometry" : {
				"type" : "Point",
				"coordinates" : [ 144.9760716, -37.7908137 ]
			},
			"properties" : {
				"lat" : "-37.7908137",
				"lon" : "144.9760716",
				"name" : "Cafe Milato",
				"street_address" : "707 Nicholson St Carlton North VIC 3054",
				"suburb" : "Carlton North",
				"seats" : "",
				"industry_code" : "4511",
				"industry_desc" : "Cafes and Restaurants",
				"ref" : ""
			}
		},
		{
			"type" : "Feature",
			"geometry" : {
				"type" : "Point",
				"coordinates" : [ 144.9690883, -37.787827 ]
			},
			"properties" : {
				"lat" : "-37.787827",
				"lon" : "144.9690883",
				"name" : "Caffe Shed on Lygon",
				"street_address" : "1020 Lygon St Carlton North VIC 3054",
				"suburb" : "Carlton North",
				"seats" : "",
				"industry_code" : "4512",
				"industry_desc" : "Takeaway Food Services",
				"ref" : ""
			}
		},
		{
			"type" : "Feature",
			"geometry" : {
				"type" : "Point",
				"coordinates" : [ 144.9739257, -37.7912151 ]
			},
			"properties" : {
				"lat" : "-37.7912151",
				"lon" : "144.9739257",
				"name" : "Carlton Cellars",
				"street_address" : "510 Canning St Carlton North VIC 3054",
				"suburb" : "Carlton North",
				"seats" : "",
				"industry_code" : "4129",
				"industry_desc" : "Other Specialised Food Retailing",
				"ref" : ""
			}
		},
		{
			"type" : "Feature",
			"geometry" : {
				"type" : "Point",
				"coordinates" : [ 144.9760716, -37.7908137 ]
			},
			"properties" : {
				"lat" : "-37.7908137",
				"lon" : "144.9760716",
				"name" : "Cherry Lane Fine Foods",
				"street_address" : "375 Nicholson St Carlton North VIC 3054",
				"suburb" : "Carlton North",
				"seats" : "",
				"industry_code" : "1140",
				"industry_desc" : "Fruit and Vegetable Processing",
				"ref" : ""
			}
		},
		{
			"type" : "Feature",
			"geometry" : {
				"type" : "Point",
				"coordinates" : [ 144.9760716, -37.7908137 ]
			},
			"properties" : {
				"lat" : "-37.7908137",
				"lon" : "144.9760716",
				"name" : "Chichora Indian Restaurant and Bar",
				"street_address" : "749 Nicholson St Carlton North VIC 3054",
				"suburb" : "Carlton North",
				"seats" : "",
				"industry_code" : "4511",
				"industry_desc" : "Cafes and Restaurants",
				"ref" : ""
			}
		},
		{
			"type" : "Feature",
			"geometry" : {
				"type" : "Point",
				"coordinates" : [ 144.971424, -37.792518 ]
			},
			"properties" : {
				"lat" : "-37.792518",
				"lon" : "144.971424",
				"name" : "Chin Chin's at Koto Moon",
				"street_address" : "647 Rathdowne St Carlton North VIC 3054",
				"suburb" : "Carlton North",
				"seats" : "",
				"industry_code" : "4511",
				"industry_desc" : "Cafes and Restaurants",
				"ref" : ""
			}
		},
		{
			"type" : "Feature",
			"geometry" : {
				"type" : "Point",
				"coordinates" : [ 144.971424, -37.792518 ]
			},
			"properties" : {
				"lat" : "-37.792518",
				"lon" : "144.971424",
				"name" : "Clay Health & Organics",
				"street_address" : "719 Rathdowne St Carlton North VIC 3054",
				"suburb" : "Carlton North",
				"seats" : "",
				"industry_code" : "4110",
				"industry_desc" : "Supermarket and Grocery Stores",
				"ref" : ""
			}
		},
		{
			"type" : "Feature",
			"geometry" : {
				"type" : "Point",
				"coordinates" : [ 144.9760716, -37.7908137 ]
			},
			"properties" : {
				"lat" : "-37.7908137",
				"lon" : "144.9760716",
				"name" : "Colonial Wines",
				"street_address" : "691 Nicholson St Carlton North VIC 3054",
				"suburb" : "Carlton North",
				"seats" : "",
				"industry_code" : "4129",
				"industry_desc" : "Other Specialised Food Retailing",
				"ref" : ""
			}
		},
		{
			"type" : "Feature",
			"geometry" : {
				"type" : "Point",
				"coordinates" : [ 144.9690883, -37.787827 ]
			},
			"properties" : {
				"lat" : "-37.787827",
				"lon" : "144.9690883",
				"name" : "Enoteca Sileno",
				"street_address" : "920-928 Lygon St Carlton North VIC 3054",
				"suburb" : "Carlton North",
				"seats" : "",
				"industry_code" : "4511",
				"industry_desc" : "Cafes and Restaurants",
				"ref" : ""
			}
		},
		{
			"type" : "Feature",
			"geometry" : {
				"type" : "Point",
				"coordinates" : [ 144.9696438, -37.7863928 ]
			},
			"properties" : {
				"lat" : "-37.7863928",
				"lon" : "144.9696438",
				"name" : "Eolian Hall",
				"street_address" : "836-842 Lygon St Carlton North VIC 3054",
				"suburb" : "Carlton North",
				"seats" : "",
				"industry_code" : "4530",
				"industry_desc" : "Clubs (Hospitality)",
				"ref" : ""
			}
		},
		{
			"type" : "Feature",
			"geometry" : {
				"type" : "Point",
				"coordinates" : [ 144.9694563, -37.7874325 ]
			},
			"properties" : {
				"lat" : "-37.7874325",
				"lon" : "144.9694563",
				"name" : "Filou's Patisserie",
				"street_address" : "187 Fenwick St Carlton North VIC 3054",
				"suburb" : "Carlton North",
				"seats" : "",
				"industry_code" : "1174",
				"industry_desc" : "Bakery Product Manufacturing (Non-factory based)",
				"ref" : ""
			}
		},
		{
			"type" : "Feature",
			"geometry" : {
				"type" : "Point",
				"coordinates" : [ 144.971424, -37.792518 ]
			},
			"properties" : {
				"lat" : "-37.792518",
				"lon" : "144.971424",
				"name" : "Fledgling Espresso",
				"street_address" : "412 Rathdowne St Carlton North VIC 3054",
				"suburb" : "Carlton North",
				"seats" : "",
				"industry_code" : "4511",
				"industry_desc" : "Cafes and Restaurants",
				"ref" : ""
			}
		},
		{
			"type" : "Feature",
			"geometry" : {
				"type" : "Point",
				"coordinates" : [ 144.971424, -37.792518 ]
			},
			"properties" : {
				"lat" : "-37.792518",
				"lon" : "144.971424",
				"name" : "Geralds Bar",
				"street_address" : "386 Rathdowne St Carlton North VIC 3054",
				"suburb" : "Carlton North",
				"seats" : "",
				"industry_code" : "4511",
				"industry_desc" : "Cafes and Restaurants",
				"ref" : ""
			}
		},
		{
			"type" : "Feature",
			"geometry" : {
				"type" : "Point",
				"coordinates" : [ 144.971424, -37.792518 ]
			},
			"properties" : {
				"lat" : "-37.792518",
				"lon" : "144.971424",
				"name" : "Giro D' Italia",
				"street_address" : "651 Rathdowne St Carlton North VIC 3054",
				"suburb" : "Carlton North",
				"seats" : "",
				"industry_code" : "4511",
				"industry_desc" : "Cafes and Restaurants",
				"ref" : ""
			}
		},
		{
			"type" : "Feature",
			"geometry" : {
				"type" : "Point",
				"coordinates" : [ 144.9760904, -37.7889872 ]
			},
			"properties" : {
				"lat" : "-37.7889872",
				"lon" : "144.9760904",
				"name" : "Handlewell Supermarket",
				"street_address" : "799 Nicholson St Carlton North VIC 3054",
				"suburb" : "Carlton North",
				"seats" : "",
				"industry_code" : "4110",
				"industry_desc" : "Supermarket and Grocery Stores",
				"ref" : ""
			}
		},
		{
			"type" : "Feature",
			"geometry" : {
				"type" : "Point",
				"coordinates" : [ 144.9760716, -37.7908137 ]
			},
			"properties" : {
				"lat" : "-37.7908137",
				"lon" : "144.9760716",
				"name" : "Happy Inn Restaurant",
				"street_address" : "723 Nicholson St Carlton North VIC 3054",
				"suburb" : "Carlton North",
				"seats" : "",
				"industry_code" : "4511",
				"industry_desc" : "Cafes and Restaurants",
				"ref" : ""
			}
		},
		{
			"type" : "Feature",
			"geometry" : {
				"type" : "Point",
				"coordinates" : [ 144.971424, -37.792518 ]
			},
			"properties" : {
				"lat" : "-37.792518",
				"lon" : "144.971424",
				"name" : "Henry Sugar",
				"street_address" : "296-298 Rathdowne St Carlton North VIC 3054",
				"suburb" : "Carlton North",
				"seats" : "",
				"industry_code" : "4511",
				"industry_desc" : "Cafes and Restaurants",
				"ref" : ""
			}
		},
		{
			"type" : "Feature",
			"geometry" : {
				"type" : "Point",
				"coordinates" : [ 144.9760716, -37.7908137 ]
			},
			"properties" : {
				"lat" : "-37.7908137",
				"lon" : "144.9760716",
				"name" : "Holy Crumpets",
				"street_address" : "645 Nicholson St Carlton North VIC 3054",
				"suburb" : "Carlton North",
				"seats" : "",
				"industry_code" : "1140",
				"industry_desc" : "Fruit and Vegetable Processing",
				"ref" : ""
			}
		},
		{
			"type" : "Feature",
			"geometry" : {
				"type" : "Point",
				"coordinates" : [ 144.9760716, -37.7908137 ]
			},
			"properties" : {
				"lat" : "-37.7908137",
				"lon" : "144.9760716",
				"name" : "I Absolute Thai Restaurant & Cafe",
				"street_address" : "651 Nicholson St Carlton North VIC 3054",
				"suburb" : "Carlton North",
				"seats" : "",
				"industry_code" : "4511",
				"industry_desc" : "Cafes and Restaurants",
				"ref" : ""
			}
		},
		{
			"type" : "Feature",
			"geometry" : {
				"type" : "Point",
				"coordinates" : [ 144.9760716, -37.7908137 ]
			},
			"properties" : {
				"lat" : "-37.7908137",
				"lon" : "144.9760716",
				"name" : "Il Carretto",
				"street_address" : "477-479 Nicholson St Carlton North VIC 3054",
				"suburb" : "Carlton North",
				"seats" : "",
				"industry_code" : "4511",
				"industry_desc" : "Cafes and Restaurants",
				"ref" : ""
			}
		},
		{
			"type" : "Feature",
			"geometry" : {
				"type" : "Point",
				"coordinates" : [ 144.9722724, -37.7886972 ]
			},
			"properties" : {
				"lat" : "-37.7886972",
				"lon" : "144.9722724",
				"name" : "Kent Hotel",
				"street_address" : "370 Rathdowne St Carlton North VIC 3054",
				"suburb" : "Carlton North",
				"seats" : "",
				"industry_code" : "4511",
				"industry_desc" : "Cafes and Restaurants",
				"ref" : ""
			}
		},
		{
			"type" : "Feature",
			"geometry" : {
				"type" : "Point",
				"coordinates" : [ 144.971424, -37.792518 ]
			},
			"properties" : {
				"lat" : "-37.792518",
				"lon" : "144.971424",
				"name" : "Khabbay",
				"street_address" : "645 Rathdowne St Carlton North VIC 3054",
				"suburb" : "Carlton North",
				"seats" : "",
				"industry_code" : "4511",
				"industry_desc" : "Cafes and Restaurants",
				"ref" : ""
			}
		},
		{
			"type" : "Feature",
			"geometry" : {
				"type" : "Point",
				"coordinates" : [ 144.971424, -37.792518 ]
			},
			"properties" : {
				"lat" : "-37.792518",
				"lon" : "144.971424",
				"name" : "Kylie's Slow Dough",
				"street_address" : "649 Rathdowne St Carlton North VIC 3054",
				"suburb" : "Carlton North",
				"seats" : "",
				"industry_code" : "1174",
				"industry_desc" : "Bakery Product Manufacturing (Non-factory based)",
				"ref" : ""
			}
		},
		{
			"type" : "Feature",
			"geometry" : {
				"type" : "Point",
				"coordinates" : [ 144.9718262, -37.7910853 ]
			},
			"properties" : {
				"lat" : "-37.7910853",
				"lon" : "144.9718262",
				"name" : "La Luna Bistro",
				"street_address" : "320 Rathdowne St Carlton North VIC 3054",
				"suburb" : "Carlton North",
				"seats" : "",
				"industry_code" : "4511",
				"industry_desc" : "Cafes and Restaurants",
				"ref" : ""
			}
		},
		{
			"type" : "Feature",
			"geometry" : {
				"type" : "Point",
				"coordinates" : [ 144.971424, -37.792518 ]
			},
			"properties" : {
				"lat" : "-37.792518",
				"lon" : "144.971424",
				"name" : "La Porchetta Carlton",
				"street_address" : "388-394 Rathdowne St Carlton North VIC 3054",
				"suburb" : "Carlton North",
				"seats" : "",
				"industry_code" : "4511",
				"industry_desc" : "Cafes and Restaurants",
				"ref" : ""
			}
		},
		{
			"type" : "Feature",
			"geometry" : {
				"type" : "Point",
				"coordinates" : [ 144.9760716, -37.7908137 ]
			},
			"properties" : {
				"lat" : "-37.7908137",
				"lon" : "144.9760716",
				"name" : "Little Andora",
				"street_address" : "555 Nicholson St Carlton North VIC 3054",
				"suburb" : "Carlton North",
				"seats" : "",
				"industry_code" : "4511",
				"industry_desc" : "Cafes and Restaurants",
				"ref" : ""
			}
		},
		{
			"type" : "Feature",
			"geometry" : {
				"type" : "Point",
				"coordinates" : [ 144.971424, -37.792518 ]
			},
			"properties" : {
				"lat" : "-37.792518",
				"lon" : "144.971424",
				"name" : "Lucky's Pizzeria",
				"street_address" : "923 Rathdowne St Carlton North VIC 3054",
				"suburb" : "Carlton North",
				"seats" : "",
				"industry_code" : "4511",
				"industry_desc" : "Cafes and Restaurants",
				"ref" : ""
			}
		},
		{
			"type" : "Feature",
			"geometry" : {
				"type" : "Point",
				"coordinates" : [ 144.977796, -37.780754 ]
			},
			"properties" : {
				"lat" : "-37.780754",
				"lon" : "144.977796",
				"name" : "Maria's Coffee House & Deli",
				"street_address" : "793 Nicholson St Carlton North VIC 3054",
				"suburb" : "Carlton North",
				"seats" : "",
				"industry_code" : "4511",
				"industry_desc" : "Cafes and Restaurants",
				"ref" : ""
			}
		},
		{
			"type" : "Feature",
			"geometry" : {
				"type" : "Point",
				"coordinates" : [ 144.9685, -37.7866 ]
			},
			"properties" : {
				"lat" : "-37.7866",
				"lon" : "144.9685",
				"name" : "Maria's Pasta",
				"street_address" : "667-679 Nicholson St Carlton North VIC 3054",
				"suburb" : "Carlton North",
				"seats" : "",
				"industry_code" : "4129",
				"industry_desc" : "Other Specialised Food Retailing",
				"ref" : ""
			}
		},
		{
			"type" : "Feature",
			"geometry" : {
				"type" : "Point",
				"coordinates" : [ 144.9739222, -37.7845674 ]
			},
			"properties" : {
				"lat" : "-37.7845674",
				"lon" : "144.9739222",
				"name" : "Mary & Steve",
				"street_address" : "267 Amess St Carlton North VIC 3054",
				"suburb" : "Carlton North",
				"seats" : "",
				"industry_code" : "4513",
				"industry_desc" : "Catering Services",
				"ref" : ""
			}
		},
		{
			"type" : "Feature",
			"geometry" : {
				"type" : "Point",
				"coordinates" : [ 144.9739222, -37.7845674 ]
			},
			"properties" : {
				"lat" : "-37.7845674",
				"lon" : "144.9739222",
				"name" : "Mary & Steve",
				"street_address" : "261 Amess St Carlton North VIC 3054",
				"suburb" : "Carlton North",
				"seats" : "",
				"industry_code" : "4513",
				"industry_desc" : "Catering Services",
				"ref" : ""
			}
		},
		{
			"type" : "Feature",
			"geometry" : {
				"type" : "Point",
				"coordinates" : [ 144.971424, -37.792518 ]
			},
			"properties" : {
				"lat" : "-37.792518",
				"lon" : "144.971424",
				"name" : "Masons",
				"street_address" : "344 Rathdowne St Carlton North VIC 3054",
				"suburb" : "Carlton North",
				"seats" : "",
				"industry_code" : "4511",
				"industry_desc" : "Cafes and Restaurants",
				"ref" : ""
			}
		},
		{
			"type" : "Feature",
			"geometry" : {
				"type" : "Point",
				"coordinates" : [ 144.9690883, -37.787827 ]
			},
			"properties" : {
				"lat" : "-37.787827",
				"lon" : "144.9690883",
				"name" : "Mr Franklin",
				"street_address" : "1024-1034 Lygon St Carlton North VIC 3054",
				"suburb" : "Carlton North",
				"seats" : "",
				"industry_code" : "4511",
				"industry_desc" : "Cafes and Restaurants",
				"ref" : ""
			}
		},
		{
			"type" : "Feature",
			"geometry" : {
				"type" : "Point",
				"coordinates" : [ 144.9760716, -37.7908137 ]
			},
			"properties" : {
				"lat" : "-37.7908137",
				"lon" : "144.9760716",
				"name" : "Natural Tucker Bakery",
				"street_address" : "807-811 Nicholson St Carlton North VIC 3054",
				"suburb" : "Carlton North",
				"seats" : "",
				"industry_code" : "1174",
				"industry_desc" : "Bakery Product Manufacturing (Non-factory based)",
				"ref" : ""
			}
		},
		{
			"type" : "Feature",
			"geometry" : {
				"type" : "Point",
				"coordinates" : [ 144.9705413, -37.7879928 ]
			},
			"properties" : {
				"lat" : "-37.7879928",
				"lon" : "144.9705413",
				"name" : "No name - Home Delivery Service",
				"street_address" : "1031 Drummond St Carlton North VIC 3054",
				"suburb" : "Carlton North",
				"seats" : "",
				"industry_code" : "4129",
				"industry_desc" : "Other Specialised Food Retailing",
				"ref" : ""
			}
		},
		{
			"type" : "Feature",
			"geometry" : {
				"type" : "Point",
				"coordinates" : [ 144.971424, -37.792518 ]
			},
			"properties" : {
				"lat" : "-37.792518",
				"lon" : "144.971424",
				"name" : "North Cafeteria",
				"street_address" : "717 Rathdowne St Carlton North VIC 3054",
				"suburb" : "Carlton North",
				"seats" : "",
				"industry_code" : "4511",
				"industry_desc" : "Cafes and Restaurants",
				"ref" : ""
			}
		},
		{
			"type" : "Feature",
			"geometry" : {
				"type" : "Point",
				"coordinates" : [ 144.9760716, -37.7908137 ]
			},
			"properties" : {
				"lat" : "-37.7908137",
				"lon" : "144.9760716",
				"name" : "North Carlton Authorised Newsagency",
				"street_address" : "711 Nicholson St Carlton North VIC 3054",
				"suburb" : "Carlton North",
				"seats" : "",
				"industry_code" : "4129",
				"industry_desc" : "Other Specialised Food Retailing",
				"ref" : ""
			}
		},
		{
			"type" : "Feature",
			"geometry" : {
				"type" : "Point",
				"coordinates" : [ 144.9690883, -37.787827 ]
			},
			"properties" : {
				"lat" : "-37.787827",
				"lon" : "144.9690883",
				"name" : "North Carlton Canteen",
				"street_address" : "1008 Lygon St Carlton North VIC 3054",
				"suburb" : "Carlton North",
				"seats" : "",
				"industry_code" : "4511",
				"industry_desc" : "Cafes and Restaurants",
				"ref" : ""
			}
		},
		{
			"type" : "Feature",
			"geometry" : {
				"type" : "Point",
				"coordinates" : [ 144.9739257, -37.7912151 ]
			},
			"properties" : {
				"lat" : "-37.7912151",
				"lon" : "144.9739257",
				"name" : "North Carlton Children's Centre",
				"street_address" : "481 Canning St Carlton North VIC 3054",
				"suburb" : "Carlton North",
				"seats" : "",
				"industry_code" : "8710",
				"industry_desc" : "Child Care Services",
				"ref" : ""
			}
		},
		{
			"type" : "Feature",
			"geometry" : {
				"type" : "Point",
				"coordinates" : [ 144.971424, -37.792518 ]
			},
			"properties" : {
				"lat" : "-37.792518",
				"lon" : "144.971424",
				"name" : "Rathdowne Cellars",
				"street_address" : "348-350 Rathdowne St Carlton North VIC 3054",
				"suburb" : "Carlton North",
				"seats" : "",
				"industry_code" : "4129",
				"industry_desc" : "Other Specialised Food Retailing",
				"ref" : ""
			}
		},
		{
			"type" : "Feature",
			"geometry" : {
				"type" : "Point",
				"coordinates" : [ 144.971424, -37.792518 ]
			},
			"properties" : {
				"lat" : "-37.792518",
				"lon" : "144.971424",
				"name" : "Rathdowne Convenience & Liquor",
				"street_address" : "278-280 Rathdowne St Carlton North VIC 3054",
				"suburb" : "Carlton North",
				"seats" : "",
				"industry_code" : "4110",
				"industry_desc" : "Supermarket and Grocery Stores",
				"ref" : ""
			}
		},
		{
			"type" : "Feature",
			"geometry" : {
				"type" : "Point",
				"coordinates" : [ 144.9724224, -37.7878365 ]
			},
			"properties" : {
				"lat" : "-37.7878365",
				"lon" : "144.9724224",
				"name" : "Rathdowne Newsagency",
				"street_address" : "410 Rathdowne St Carlton North VIC 3054",
				"suburb" : "Carlton North",
				"seats" : "",
				"industry_code" : "4129",
				"industry_desc" : "Other Specialised Food Retailing",
				"ref" : ""
			}
		},
		{
			"type" : "Feature",
			"geometry" : {
				"type" : "Point",
				"coordinates" : [ 144.971424, -37.792518 ]
			},
			"properties" : {
				"lat" : "-37.792518",
				"lon" : "144.971424",
				"name" : "Rathdowne St Cafe",
				"street_address" : "619 Rathdowne St Carlton North VIC 3054",
				"suburb" : "Carlton North",
				"seats" : "",
				"industry_code" : "4511",
				"industry_desc" : "Cafes and Restaurants",
				"ref" : ""
			}
		},
		{
			"type" : "Feature",
			"geometry" : {
				"type" : "Point",
				"coordinates" : [ 144.971424, -37.792518 ]
			},
			"properties" : {
				"lat" : "-37.792518",
				"lon" : "144.971424",
				"name" : "Rathdowne Village Delicatessen",
				"street_address" : "378 Rathdowne St Carlton North VIC 3054",
				"suburb" : "Carlton North",
				"seats" : "",
				"industry_code" : "4511",
				"industry_desc" : "Cafes and Restaurants",
				"ref" : ""
			}
		},
		{
			"type" : "Feature",
			"geometry" : {
				"type" : "Point",
				"coordinates" : [ 144.9722798, -37.7886229 ]
			},
			"properties" : {
				"lat" : "-37.7886229",
				"lon" : "144.9722798",
				"name" : "Rathdowne Village Grocery Store",
				"street_address" : "374 Rathdowne St Carlton North VIC 3054",
				"suburb" : "Carlton North",
				"seats" : "",
				"industry_code" : "4512",
				"industry_desc" : "Takeaway Food Services",
				"ref" : ""
			}
		},
		{
			"type" : "Feature",
			"geometry" : {
				"type" : "Point",
				"coordinates" : [ 144.9760716, -37.7908137 ]
			},
			"properties" : {
				"lat" : "-37.7908137",
				"lon" : "144.9760716",
				"name" : "San Remo Ballroom",
				"street_address" : "365 Nicholson St Carlton North VIC 3054",
				"suburb" : "Carlton North",
				"seats" : "",
				"industry_code" : "4511",
				"industry_desc" : "Cafes and Restaurants",
				"ref" : ""
			}
		},
		{
			"type" : "Feature",
			"geometry" : {
				"type" : "Point",
				"coordinates" : [ 144.971424, -37.792518 ]
			},
			"properties" : {
				"lat" : "-37.792518",
				"lon" : "144.971424",
				"name" : "Senserrick Green Grocer",
				"street_address" : "384 Rathdowne St Carlton North VIC 3054",
				"suburb" : "Carlton North",
				"seats" : "",
				"industry_code" : "4122",
				"industry_desc" : "Fruit and Vegetable Retailing",
				"ref" : ""
			}
		},
		{
			"type" : "Feature",
			"geometry" : {
				"type" : "Point",
				"coordinates" : [ 144.9760716, -37.7908137 ]
			},
			"properties" : {
				"lat" : "-37.7908137",
				"lon" : "144.9760716",
				"name" : "Senserrick Green Grocer",
				"street_address" : "687 Nicholson St Carlton North VIC 3054",
				"suburb" : "Carlton North",
				"seats" : "",
				"industry_code" : "4110",
				"industry_desc" : "Supermarket and Grocery Stores",
				"ref" : ""
			}
		},
		{
			"type" : "Feature",
			"geometry" : {
				"type" : "Point",
				"coordinates" : [ 144.9760716, -37.7908137 ]
			},
			"properties" : {
				"lat" : "-37.7908137",
				"lon" : "144.9760716",
				"name" : "Sibling by Kinfolk",
				"street_address" : "611 Nicholson St Carlton North VIC 3054",
				"suburb" : "Carlton North",
				"seats" : "",
				"industry_code" : "4511",
				"industry_desc" : "Cafes and Restaurants",
				"ref" : ""
			}
		},
		{
			"type" : "Feature",
			"geometry" : {
				"type" : "Point",
				"coordinates" : [ 144.971424, -37.792518 ]
			},
			"properties" : {
				"lat" : "-37.792518",
				"lon" : "144.971424",
				"name" : "Skinner & Hackett",
				"street_address" : "400 Rathdowne St Carlton North VIC 3054",
				"suburb" : "Carlton North",
				"seats" : "",
				"industry_code" : "4511",
				"industry_desc" : "Cafes and Restaurants",
				"ref" : ""
			}
		},
		{
			"type" : "Feature",
			"geometry" : {
				"type" : "Point",
				"coordinates" : [ 144.971424, -37.792518 ]
			},
			"properties" : {
				"lat" : "-37.792518",
				"lon" : "144.971424",
				"name" : "Small Victories Restaurant and Bar",
				"street_address" : "617 Rathdowne St Carlton North VIC 3054",
				"suburb" : "Carlton North",
				"seats" : "",
				"industry_code" : "4511",
				"industry_desc" : "Cafes and Restaurants",
				"ref" : ""
			}
		},
		{
			"type" : "Feature",
			"geometry" : {
				"type" : "Point",
				"coordinates" : [ 144.971424, -37.792518 ]
			},
			"properties" : {
				"lat" : "-37.792518",
				"lon" : "144.971424",
				"name" : "Spencer & Co Wine Bar Provedore",
				"street_address" : "639 Rathdowne St Carlton North VIC 3054",
				"suburb" : "Carlton North",
				"seats" : "",
				"industry_code" : "4511",
				"industry_desc" : "Cafes and Restaurants",
				"ref" : ""
			}
		},
		{
			"type" : "Feature",
			"geometry" : {
				"type" : "Point",
				"coordinates" : [ 144.971424, -37.792518 ]
			},